# 
# Header Description:
# 
# Version: v2.0.0.1 Platform: 9 Manufacturer: Sony Model: H9436
# 
# Raw,ElapsedRealtimeMillis,TimeNanos,LeapSecond,TimeUncertaintyNanos,FullBiasNanos,BiasNanos,BiasUncertaintyNanos,DriftNanosPerSecond,DriftUncertaintyNanosPerSecond,HardwareClockDiscontinuityCount,Svid,TimeOffsetNanos,State,ReceivedSvTimeNanos,ReceivedSvTimeUncertaintyNanos,Cn0DbHz,PseudorangeRateMetersPerSecond,PseudorangeRateUncertaintyMetersPerSecond,AccumulatedDeltaRangeState,AccumulatedDeltaRangeMeters,AccumulatedDeltaRangeUncertaintyMeters,CarrierFrequencyHz,CarrierCycles,CarrierPhase,CarrierPhaseUncertainty,MultipathIndicator,SnrInDb,ConstellationType,AgcDb,CarrierFrequencyHz
# 
# Fix,Provider,Latitude,Longitude,Altitude,Speed,Accuracy,(UTC)TimeInMs
# 
# Nav,Svid,Type,Status,MessageId,Sub-messageId,Data(Bytes)
# 
Fix,gps,54.375059,18.604058,82.320496,0.000000,10.720000,1562658555000
Raw,1686969,1705442000000,,,-1246692066999178639,-0.18840885162353516,95.06267087999731,-24.079826156288583,15.207045591359439,14,14,0.0,207,38954376811111,70,17.6,-196.55523681640625,1.220500111579895,16,0.0,0.0,1.59806246E9,,,,0,,3,0.0,1.59806246E9
Raw,1686969,1705442000000,,,-1246692066999178639,-0.18840885162353516,95.06267087999731,-24.079826156288583,15.207045591359439,14,13,0.0,207,38954372785642,24,25.7,555.679931640625,0.7444999814033508,16,0.0,0.0,1.60087501E9,,,,0,,3,0.0,1.60087501E9
Raw,1686969,1705442000000,,,-1246692066999178639,-0.18840885162353516,95.06267087999731,-24.079826156288583,15.207045591359439,14,15,0.0,207,38954366256407,933,15.3,-740.7138671875,20.12550163269043,16,0.0,0.0,1.602E9,,,,0,,3,0.0,1.602E9
Raw,1686970,1705442000000,,,-1246692066999178639,-0.18840885162353516,95.06267087999731,-24.079826156288583,15.207045591359439,14,24,0.0,207,38954374115154,61,18.2,-512.954833984375,1.1375000476837158,16,0.0,0.0,1.60312499E9,,,,0,,3,0.0,1.60312499E9
Raw,1686970,1705442000000,,,-1246692066999178639,-0.18840885162353516,95.06267087999731,-24.079826156288583,15.207045591359439,14,23,0.0,207,38954376636883,70,17.8,211.8304443359375,1.220500111579895,16,0.0,0.0,1.60368755E9,,,,0,,3,0.0,1.60368755E9
Raw,1686970,1705442000000,,,-1246692066999178639,-0.18840885162353516,95.06267087999731,-24.079826156288583,15.207045591359439,14,2,0.0,15,200972367072045,97,16.8,130.96961975097656,3.3370001316070557,16,0.0,0.0,1.57542003E9,,,,0,,1,0.0,1.57542003E9
Raw,1686970,1705442000000,,,-1246692066999178639,-0.18840885162353516,95.06267087999731,-24.079826156288583,15.207045591359439,14,12,0.0,15,200972369404303,27,24.1,492.65130615234375,0.6300000548362732,16,0.0,0.0,1.57542003E9,,,,0,,1,0.0,1.57542003E9
Raw,1686971,1705442000000,,,-1246692066999178639,-0.18840885162353516,95.06267087999731,-24.079826156288583,15.207045591359439,14,25,0.0,15,200972373496078,53,19.4,38.0967903137207,0.8659999966621399,16,0.0,0.0,1.57542003E9,,,,0,,1,0.0,1.57542003E9
Raw,1686971,1705442000000,,,-1246692066999178639,-0.18840885162353516,95.06267087999731,-24.079826156288583,15.207045591359439,14,29,0.0,15,200972371488697,27,24.9,-389.62628173828125,0.5929999947547913,16,0.0,0.0,1.57542003E9,,,,0,,1,0.0,1.57542003E9
Raw,1686971,1705442000000,,,-1246692066999178639,-0.18840885162353516,95.06267087999731,-24.079826156288583,15.207045591359439,14,31,0.0,15,200972367960580,61,18.2,-335.5448303222656,1.0069999694824219,16,0.0,0.0,1.57542003E9,,,,0,,1,0.0,1.57542003E9
Raw,1686971,1705442000000,,,-1246692066999178639,-0.18840885162353516,95.06267087999731,-24.079826156288583,15.207045591359439,14,5,0.0,783,200958308567398,38,23.2,-4.176858901977539,2.0234999656677246,16,0.0,0.0,1.56109798E9,,,,0,,5,0.0,1.56109798E9
Raw,1686972,1705442000000,,,-1246692066999178639,-0.18840885162353516,95.06267087999731,-24.079826156288583,15.207045591359439,14,11,0.0,15,200958368895094,527,15.0,-109.19366455078125,14.428500175476074,16,0.0,0.0,1.56109798E9,,,,0,,5,0.0,1.56109798E9
Raw,1686972,1705442000000,,,-1246692066999178639,-0.18840885162353516,95.06267087999731,-24.079826156288583,15.207045591359439,14,13,0.0,15,200958315738189,1008,13.6,26.491846084594727,20.459001541137695,16,0.0,0.0,1.56109798E9,,,,0,,5,0.0,1.56109798E9
Raw,1686972,1705442000000,,,-1246692066999178639,-0.18840885162353516,95.06267087999731,-24.079826156288583,15.207045591359439,14,2,0.0,7183,200972362773138,148,14.7,-170.6839141845703,4.94350004196167,16,0.0,0.0,1.57542003E9,,,,0,,6,0.0,1.57542003E9
Raw,1686972,1705442000000,,,-1246692066999178639,-0.18840885162353516,95.06267087999731,-24.079826156288583,15.207045591359439,14,11,0.0,7183,200972366734819,148,14.5,104.33802032470703,4.94350004196167,16,0.0,0.0,1.57542003E9,,,,0,,6,0.0,1.57542003E9
Raw,1686973,1705442000000,,,-1246692066999178639,-0.18840885162353516,95.06267087999731,-24.079826156288583,15.207045591359439,14,25,0.0,7183,200972361623879,14,30.7,355.9336853027344,0.20000000298023224,16,0.0,0.0,1.57542003E9,,,,0,,6,0.0,1.57542003E9
Fix,gps,54.375059,18.604058,82.319458,0.000000,10.720000,1562658556000
Raw,1687971,1706442000000,,,-1246692066999178642,-0.9584026336669922,91.75699960906059,-16.083940647206504,15.104774331302247,14,14,0.0,207,38955376811766,79,17.6,-196.55523681640625,2.7205002307891846,16,0.0,0.0,1.59806246E9,,,,0,,3,0.0,1.59806246E9
Raw,1687971,1706442000000,,,-1246692066999178642,-0.9584026336669922,91.75699960906059,-16.083940647206504,15.104774331302247,14,13,0.0,207,38955372783877,19,27.2,555.9229125976562,0.25929999351501465,16,0.0,0.0,1.60087501E9,,,,0,,3,0.0,1.60087501E9
Raw,1687971,1706442000000,,,-1246692066999178642,-0.9584026336669922,91.75699960906059,-16.083940647206504,15.104774331302247,14,15,0.0,207,38955366259093,322,12.0,-741.7056274414062,9.935500144958496,16,0.0,0.0,1.602E9,,,,0,,3,0.0,1.602E9
Raw,1687972,1706442000000,,,-1246692066999178642,-0.9584026336669922,91.75699960906059,-16.083940647206504,15.104774331302247,14,24,0.0,207,38955374116846,24,25.2,-512.8674926757812,0.6028000116348267,16,0.0,0.0,1.60312499E9,,,,0,,3,0.0,1.60312499E9
Raw,1687972,1706442000000,,,-1246692066999178642,-0.9584026336669922,91.75699960906059,-16.083940647206504,15.104774331302247,14,23,0.0,207,38955376636084,46,20.3,212.4286346435547,1.0104999542236328,16,0.0,0.0,1.60368755E9,,,,0,,3,0.0,1.60368755E9
Raw,1687972,1706442000000,,,-1246692066999178642,-0.9584026336669922,91.75699960906059,-16.083940647206504,15.104774331302247,14,2,0.0,15,200973367071608,121,16.8,130.96961975097656,4.836999893188477,16,0.0,0.0,1.57542003E9,,,,0,,1,0.0,1.57542003E9
Raw,1687973,1706442000000,,,-1246692066999178642,-0.9584026336669922,91.75699960906059,-16.083940647206504,15.104774331302247,14,12,0.0,15,200973369402707,14,30.0,492.802490234375,0.20000000298023224,16,0.0,0.0,1.57542003E9,,,,0,,1,0.0,1.57542003E9
Raw,1687973,1706442000000,,,-1246692066999178642,-0.9584026336669922,91.75699960906059,-16.083940647206504,15.104774331302247,14,25,0.0,15,200973373495983,31,23.7,38.30611801147461,0.6360000371932983,16,0.0,0.0,1.57542003E9,,,,0,,1,0.0,1.57542003E9
Raw,1687973,1706442000000,,,-1246692066999178642,-0.9584026336669922,91.75699960906059,-16.083940647206504,15.104774331302247,14,29,0.0,15,200973371489936,27,24.4,-389.13153076171875,0.5929999947547913,16,0.0,0.0,1.57542003E9,,,,0,,1,0.0,1.57542003E9
Raw,1687973,1706442000000,,,-1246692066999178642,-0.9584026336669922,91.75699960906059,-16.083940647206504,15.104774331302247,14,31,0.0,15,200973367961595,35,22.5,-335.8017272949219,0.6769999861717224,16,0.0,0.0,1.57542003E9,,,,0,,1,0.0,1.57542003E9
Raw,1687974,1706442000000,,,-1246692066999178642,-0.9584026336669922,91.75699960906059,-16.083940647206504,15.104774331302247,14,5,0.0,783,200959308567412,54,23.2,-4.176858901977539,3.5235002040863037,16,0.0,0.0,1.56109798E9,,,,0,,5,0.0,1.56109798E9
Raw,1687974,1706442000000,,,-1246692066999178642,-0.9584026336669922,91.75699960906059,-16.083940647206504,15.104774331302247,14,11,0.0,15,200959368895458,625,15.0,-109.19366455078125,15.92850112915039,16,0.0,0.0,1.56109798E9,,,,0,,5,0.0,1.56109798E9
Raw,1687974,1706442000000,,,-1246692066999178642,-0.9584026336669922,91.75699960906059,-16.083940647206504,15.104774331302247,14,13,0.0,15,200959315738100,1146,13.6,26.491846084594727,21.959001541137695,16,0.0,0.0,1.56109798E9,,,,0,,5,0.0,1.56109798E9
Raw,1687975,1706442000000,,,-1246692066999178642,-0.9584026336669922,91.75699960906059,-16.083940647206504,15.104774331302247,14,2,0.0,7183,200973362773620,40,21.1,-169.58021545410156,0.6934999823570251,16,0.0,0.0,1.57542003E9,,,,0,,6,0.0,1.57542003E9
Raw,1687975,1706442000000,,,-1246692066999178642,-0.9584026336669922,91.75699960906059,-16.083940647206504,15.104774331302247,14,11,0.0,7183,200973366734471,182,14.5,104.33802032470703,6.44350004196167,16,0.0,0.0,1.57542003E9,,,,0,,6,0.0,1.57542003E9
Raw,1687976,1706442000000,,,-1246692066999178642,-0.9584026336669922,91.75699960906059,-16.083940647206504,15.104774331302247,14,25,0.0,7183,200973361622711,13,31.1,356.4659118652344,0.20000000298023224,16,0.0,0.0,1.57542003E9,,,,0,,6,0.0,1.57542003E9
Raw,1688957,1707442000000,,,-1246692066999178654,-0.2534828186035156,92.9251909838058,-15.509539417218889,14.459820739965979,14,14,0.0,207,38956376812422,98,17.6,-196.55523681640625,4.2204999923706055,16,0.0,0.0,1.59806246E9,,,,0,,3,0.0,1.59806246E9
Raw,1688958,1707442000000,,,-1246692066999178654,-0.2534828186035156,92.9251909838058,-15.509539417218889,14.459820739965979,14,13,0.0,207,38956372781985,24,25.8,557.2432861328125,0.5997999906539917,16,0.0,0.0,1.60087501E9,,,,0,,3,0.0,1.60087501E9
Raw,1688958,1707442000000,,,-1246692066999178654,-0.2534828186035156,92.9251909838058,-15.509539417218889,14.459820739965979,14,15,0.0,207,38956366261630,46,20.0,-740.3114624023438,0.9954999685287476,16,0.0,0.0,1.602E9,,,,0,,3,0.0,1.602E9
Raw,1688958,1707442000000,,,-1246692066999178654,-0.2534828186035156,92.9251909838058,-15.509539417218889,14.459820739965979,14,24,0.0,207,38956374118579,27,24.5,-511.6645202636719,0.7975000143051147,16,0.0,0.0,1.60312499E9,,,,0,,3,0.0,1.60312499E9
Raw,1688958,1707442000000,,,-1246692066999178654,-0.2534828186035156,92.9251909838058,-15.509539417218889,14.459820739965979,14,23,0.0,207,38956376635570,40,21.8,214.08306884765625,0.950499951839447,16,0.0,0.0,1.60368755E9,,,,0,,3,0.0,1.60368755E9
Raw,1688958,1707442000000,,,-1246692066999178654,-0.2534828186035156,92.9251909838058,-15.509539417218889,14.459820739965979,14,2,0.0,15,200974367071201,78,17.4,135.3749237060547,2.507000207901001,16,0.0,0.0,1.57542003E9,,,,0,,1,0.0,1.57542003E9
Raw,1688959,1707442000000,,,-1246692066999178654,-0.2534828186035156,92.9251909838058,-15.509539417218889,14.459820739965979,14,12,0.0,15,200974369401066,21,26.5,493.916748046875,0.5099999904632568,16,0.0,0.0,1.57542003E9,,,,0,,1,0.0,1.57542003E9
Raw,1688959,1707442000000,,,-1246692066999178654,-0.2534828186035156,92.9251909838058,-15.509539417218889,14.459820739965979,14,25,0.0,15,200974373495736,53,19.8,38.249027252197266,0.8659999966621399,16,0.0,0.0,1.57542003E9,,,,0,,1,0.0,1.57542003E9
Raw,1688959,1707442000000,,,-1246692066999178654,-0.2534828186035156,92.9251909838058,-15.509539417218889,14.459820739965979,14,29,0.0,15,200974371491368,31,23.1,-387.8280334472656,0.6829999685287476,16,0.0,0.0,1.57542003E9,,,,0,,1,0.0,1.57542003E9
Raw,1688959,1707442000000,,,-1246692066999178654,-0.2534828186035156,92.9251909838058,-15.509539417218889,14.459820739965979,14,31,0.0,15,200974367962782,24,25.5,-334.8904113769531,0.392300009727478,16,0.0,0.0,1.57542003E9,,,,0,,1,0.0,1.57542003E9
Raw,1688959,1707442000000,,,-1246692066999178654,-0.2534828186035156,92.9251909838058,-15.509539417218889,14.459820739965979,14,5,0.0,783,200960308567425,81,23.2,-4.176858901977539,5.023500442504883,16,0.0,0.0,1.56109798E9,,,,0,,5,0.0,1.56109798E9
Raw,1688959,1707442000000,,,-1246692066999178654,-0.2534828186035156,92.9251909838058,-15.509539417218889,14.459820739965979,14,11,0.0,15,200960368895860,257,12.4,-108.16624450683594,7.838500499725342,16,0.0,0.0,1.56109798E9,,,,0,,5,0.0,1.56109798E9
Raw,1688960,1707442000000,,,-1246692066999178654,-0.2534828186035156,92.9251909838058,-15.509539417218889,14.459820739965979,14,13,0.0,15,200960315738012,1294,13.6,26.491846084594727,23.459001541137695,16,0.0,0.0,1.56109798E9,,,,0,,5,0.0,1.56109798E9
Raw,1688960,1707442000000,,,-1246692066999178654,-0.2534828186035156,92.9251909838058,-15.509539417218889,14.459820739965979,14,2,0.0,7183,200974362774185,47,21.1,-169.58021545410156,2.19350004196167,16,0.0,0.0,1.57542003E9,,,,0,,6,0.0,1.57542003E9
Raw,1688960,1707442000000,,,-1246692066999178654,-0.2534828186035156,92.9251909838058,-15.509539417218889,14.459820739965979,14,11,0.0,7183,200974366734062,101,15.9,106.39319610595703,2.6035001277923584,16,0.0,0.0,1.57542003E9,,,,0,,6,0.0,1.57542003E9
Raw,1688960,1707442000000,,,-1246692066999178654,-0.2534828186035156,92.9251909838058,-15.509539417218889,14.459820739965979,14,25,0.0,7183,200974361621521,13,31.2,357.5369873046875,0.20000000298023224,16,0.0,0.0,1.57542003E9,,,,0,,6,0.0,1.57542003E9
Fix,gps,54.375059,18.604058,82.301270,0.000000,10.720000,1562658557000
Fix,gps,54.375059,18.604058,82.289185,0.000000,9.648001,1562658558000
Raw,1689954,1708442000000,,,-1246692066999178671,-0.27060890197753906,83.17956962855533,-11.941647637282639,13.901450739548284,14,14,0.0,207,38957376813078,128,17.6,-196.55523681640625,5.720500469207764,16,0.0,0.0,1.59806246E9,,,,0,,3,0.0,1.59806246E9
Raw,1689954,1708442000000,,,-1246692066999178671,-0.27060890197753906,83.17956962855533,-11.941647637282639,13.901450739548284,14,13,0.0,207,38957372780165,21,26.8,557.7062377929688,0.32919999957084656,16,0.0,0.0,1.60087501E9,,,,0,,3,0.0,1.60087501E9
Raw,1689954,1708442000000,,,-1246692066999178671,-0.27060890197753906,83.17956962855533,-11.941647637282639,13.901450739548284,14,15,0.0,207,38957366264155,53,19.7,-739.8997802734375,1.0555000305175781,16,0.0,0.0,1.602E9,,,,0,,3,0.0,1.602E9
Raw,1689955,1708442000000,,,-1246692066999178671,-0.27060890197753906,83.17956962855533,-11.941647637282639,13.901450739548284,14,24,0.0,207,38957374120295,53,19.4,-511.1689147949219,1.0674999952316284,16,0.0,0.0,1.60312499E9,,,,0,,3,0.0,1.60312499E9
Raw,1689955,1708442000000,,,-1246692066999178671,-0.27060890197753906,83.17956962855533,-11.941647637282639,13.901450739548284,14,23,0.0,207,38957376634797,21,26.9,214.1668243408203,0.3352000117301941,16,0.0,0.0,1.60368755E9,,,,0,,3,0.0,1.60368755E9
Raw,1689955,1708442000000,,,-1246692066999178671,-0.27060890197753906,83.17956962855533,-11.941647637282639,13.901450739548284,14,2,0.0,15,200975367070619,61,18.6,137.50621032714844,0.9269999861717224,16,0.0,0.0,1.57542003E9,,,,0,,1,0.0,1.57542003E9
Raw,1689956,1708442000000,,,-1246692066999178671,-0.27060890197753906,83.17956962855533,-11.941647637282639,13.901450739548284,14,12,0.0,15,200975369399404,11,33.5,494.30987548828125,0.20000000298023224,16,0.0,0.0,1.57542003E9,,,,0,,1,0.0,1.57542003E9
Raw,1689956,1708442000000,,,-1246692066999178671,-0.27060890197753906,83.17956962855533,-11.941647637282639,13.901450739548284,14,25,0.0,15,200975373495707,27,24.2,39.68574523925781,0.6360000371932983,16,0.0,0.0,1.57542003E9,,,,0,,1,0.0,1.57542003E9
Raw,1689956,1708442000000,,,-1246692066999178671,-0.27060890197753906,83.17956962855533,-11.941647637282639,13.901450739548284,14,29,0.0,15,200975371492693,46,20.2,-387.6662902832031,0.8629999756813049,16,0.0,0.0,1.57542003E9,,,,0,,1,0.0,1.57542003E9
Raw,1689956,1708442000000,,,-1246692066999178671,-0.27060890197753906,83.17956962855533,-11.941647637282639,13.901450739548284,14,31,0.0,15,200975367963804,80,16.2,-334.2318115234375,1.1769999265670776,16,0.0,0.0,1.57542003E9,,,,0,,1,0.0,1.57542003E9
Raw,1689957,1708442000000,,,-1246692066999178671,-0.27060890197753906,83.17956962855533,-11.941647637282639,13.901450739548284,14,5,0.0,783,200961308567439,118,23.2,-4.176858901977539,6.523500442504883,16,0.0,0.0,1.56109798E9,,,,0,,5,0.0,1.56109798E9
Raw,1689957,1708442000000,,,-1246692066999178671,-0.27060890197753906,83.17956962855533,-11.941647637282639,13.901450739548284,14,11,0.0,15,200961368896220,311,12.4,-108.16624450683594,9.338500022888184,16,0.0,0.0,1.56109798E9,,,,0,,5,0.0,1.56109798E9
Raw,1689957,1708442000000,,,-1246692066999178671,-0.27060890197753906,83.17956962855533,-11.941647637282639,13.901450739548284,14,13,0.0,15,200961315737952,83,16.2,26.94314193725586,1.6190000772476196,16,0.0,0.0,1.56109798E9,,,,0,,5,0.0,1.56109798E9
Raw,1689957,1708442000000,,,-1246692066999178671,-0.27060890197753906,83.17956962855533,-11.941647637282639,13.901450739548284,14,2,0.0,7183,200975362774751,65,21.1,-169.58021545410156,3.69350004196167,16,0.0,0.0,1.57542003E9,,,,0,,6,0.0,1.57542003E9
Raw,1689958,1708442000000,,,-1246692066999178671,-0.27060890197753906,83.17956962855533,-11.941647637282639,13.901450739548284,14,11,0.0,7183,200975366733707,120,15.9,106.39319610595703,4.103499889373779,16,0.0,0.0,1.57542003E9,,,,0,,6,0.0,1.57542003E9
Raw,1689959,1708442000000,,,-1246692066999178671,-0.27060890197753906,83.17956962855533,-11.941647637282639,13.901450739548284,14,25,0.0,7183,200975361620324,12,32.3,357.93206787109375,0.20000000298023224,16,0.0,0.0,1.57542003E9,,,,0,,6,0.0,1.57542003E9
Fix,gps,54.375059,18.604058,82.281433,0.000000,9.648001,1562658559000
Raw,1690966,1709442000000,,,-1246692066999178683,-0.2511425018310547,78.01051833666861,-10.29333773550752,13.901640015897012,14,14,0.0,207,38958376813733,167,17.6,-196.55523681640625,7.220500469207764,16,0.0,0.0,1.59806246E9,,,,0,,3,0.0,1.59806246E9
Raw,1690966,1709442000000,,,-1246692066999178683,-0.2511425018310547,78.01051833666861,-10.29333773550752,13.901640015897012,14,13,0.0,207,38958372778287,31,23.3,557.8054809570312,0.8345000147819519,16,0.0,0.0,1.60087501E9,,,,0,,3,0.0,1.60087501E9
Raw,1690966,1709442000000,,,-1246692066999178683,-0.2511425018310547,78.01051833666861,-10.29333773550752,13.901640015897012,14,15,0.0,207,38958366266623,61,19.7,-739.8997802734375,2.555500030517578,16,0.0,0.0,1.602E9,,,,0,,3,0.0,1.602E9
Raw,1690967,1709442000000,,,-1246692066999178683,-0.2511425018310547,78.01051833666861,-10.29333773550752,13.901640015897012,14,24,0.0,207,38958374122000,61,19.4,-511.1689147949219,2.567500114440918,16,0.0,0.0,1.60312499E9,,,,0,,3,0.0,1.60312499E9
Raw,1690967,1709442000000,,,-1246692066999178683,-0.2511425018310547,78.01051833666861,-10.29333773550752,13.901640015897012,14,23,0.0,207,38958376633987,24,25.9,214.5215301513672,0.6057999730110168,16,0.0,0.0,1.60368755E9,,,,0,,3,0.0,1.60368755E9
Raw,1690967,1709442000000,,,-1246692066999178683,-0.2511425018310547,78.01051833666861,-10.29333773550752,13.901640015897012,14,2,0.0,15,200976367070242,61,18.2,136.54522705078125,1.0069999694824219,16,0.0,0.0,1.57542003E9,,,,0,,1,0.0,1.57542003E9
Raw,1690967,1709442000000,,,-1246692066999178683,-0.2511425018310547,78.01051833666861,-10.29333773550752,13.901640015897012,14,12,0.0,15,200976369397745,12,32.1,494.4012145996094,0.20000000298023224,16,0.0,0.0,1.57542003E9,,,,0,,1,0.0,1.57542003E9
Raw,1690967,1709442000000,,,-1246692066999178683,-0.2511425018310547,78.01051833666861,-10.29333773550752,13.901640015897012,14,25,0.0,15,200976373495569,31,23.3,40.11390686035156,0.6859999895095825,16,0.0,0.0,1.57542003E9,,,,0,,1,0.0,1.57542003E9
Raw,1690968,1709442000000,,,-1246692066999178683,-0.2511425018310547,78.01051833666861,-10.29333773550752,13.901640015897012,14,29,0.0,15,200976371493917,27,24.0,-387.28570556640625,0.6330000162124634,16,0.0,0.0,1.57542003E9,,,,0,,1,0.0,1.57542003E9
Raw,1690968,1709442000000,,,-1246692066999178683,-0.2511425018310547,78.01051833666861,-10.29333773550752,13.901640015897012,14,31,0.0,15,200976367964946,46,20.2,-334.0034484863281,0.8569999933242798,16,0.0,0.0,1.57542003E9,,,,0,,1,0.0,1.57542003E9
Raw,1690968,1709442000000,,,-1246692066999178683,-0.2511425018310547,78.01051833666861,-10.29333773550752,13.901640015897012,14,5,0.0,783,200962308567453,165,23.2,-4.176858901977539,8.023500442504883,16,0.0,0.0,1.56109798E9,,,,0,,5,0.0,1.56109798E9
Raw,1690968,1709442000000,,,-1246692066999178683,-0.2511425018310547,78.01051833666861,-10.29333773550752,13.901640015897012,14,11,0.0,15,200962368896581,375,12.4,-108.16624450683594,10.838500022888184,16,0.0,0.0,1.56109798E9,,,,0,,5,0.0,1.56109798E9
Raw,1690968,1709442000000,,,-1246692066999178683,-0.2511425018310547,78.01051833666861,-10.29333773550752,13.901640015897012,14,13,0.0,15,200962315737862,96,16.2,26.94314193725586,3.119000196456909,16,0.0,0.0,1.56109798E9,,,,0,,5,0.0,1.56109798E9
Raw,1690968,1709442000000,,,-1246692066999178683,-0.2511425018310547,78.01051833666861,-10.29333773550752,13.901640015897012,14,2,0.0,7183,200976362775317,92,21.1,-169.58021545410156,5.19350004196167,16,0.0,0.0,1.57542003E9,,,,0,,6,0.0,1.57542003E9
Raw,1690969,1709442000000,,,-1246692066999178683,-0.2511425018310547,78.01051833666861,-10.29333773550752,13.901640015897012,14,11,0.0,7183,200976366733352,149,15.9,106.39319610595703,5.6035003662109375,16,0.0,0.0,1.57542003E9,,,,0,,6,0.0,1.57542003E9
Raw,1690969,1709442000000,,,-1246692066999178683,-0.2511425018310547,78.01051833666861,-10.29333773550752,13.901640015897012,14,25,0.0,7183,200976361619131,16,29.3,357.98321533203125,0.20000000298023224,16,0.0,0.0,1.57542003E9,,,,0,,6,0.0,1.57542003E9
Raw,1690969,1709442000000,,,-1246692066999178683,-0.2511425018310547,78.01051833666861,-10.29333773550752,13.901640015897012,14,30,0.0,7183,200976356056335,339,11.7,-527.7890014648438,9.750500679016113,16,0.0,0.0,1.57542003E9,,,,0,,6,0.0,1.57542003E9
Fix,gps,54.375059,18.604058,82.274109,0.000000,9.648001,1562658560000
Raw,1691974,1710442000000,,,-1246692066999178688,-0.3175373077392578,77.7754103182815,-10.51227718730681,14.383486701914613,14,14,0.0,207,38959376814521,136,14.3,-193.01902770996094,4.480500221252441,16,0.0,0.0,1.59806246E9,,,,0,,3,0.0,1.59806246E9
Raw,1691974,1710442000000,,,-1246692066999178688,-0.3175373077392578,77.7754103182815,-10.51227718730681,14.383486701914613,14,13,0.0,207,38959372776358,31,23.0,559.05078125,0.8345000147819519,16,0.0,0.0,1.60087501E9,,,,0,,3,0.0,1.60087501E9
Raw,1691975,1710442000000,,,-1246692066999178688,-0.3175373077392578,77.7754103182815,-10.51227718730681,14.383486701914613,14,15,0.0,207,38959366269091,80,19.7,-739.8997802734375,4.055500030517578,16,0.0,0.0,1.602E9,,,,0,,3,0.0,1.602E9
Raw,1691975,1710442000000,,,-1246692066999178688,-0.3175373077392578,77.7754103182815,-10.51227718730681,14.383486701914613,14,24,0.0,207,38959374123705,80,19.4,-511.1689147949219,4.067500114440918,16,0.0,0.0,1.60312499E9,,,,0,,3,0.0,1.60312499E9
Raw,1691975,1710442000000,,,-1246692066999178688,-0.3175373077392578,77.7754103182815,-10.51227718730681,14.383486701914613,14,23,0.0,207,38959376633341,21,26.9,215.3168487548828,0.3352000117301941,16,0.0,0.0,1.60368755E9,,,,0,,3,0.0,1.60368755E9
Raw,1691976,1710442000000,,,-1246692066999178688,-0.3175373077392578,77.7754103182815,-10.51227718730681,14.383486701914613,14,2,0.0,15,200977367069763,46,20.7,137.8867950439453,0.796999990940094,16,0.0,0.0,1.57542003E9,,,,0,,1,0.0,1.57542003E9
Raw,1691976,1710442000000,,,-1246692066999178688,-0.3175373077392578,77.7754103182815,-10.51227718730681,14.383486701914613,14,12,0.0,15,200977369396104,14,30.9,495.33099365234375,0.20000000298023224,16,0.0,0.0,1.57542003E9,,,,0,,1,0.0,1.57542003E9
Raw,1691976,1710442000000,,,-1246692066999178688,-0.3175373077392578,77.7754103182815,-10.51227718730681,14.383486701914613,14,25,0.0,15,200977373495414,61,18.1,39.90458297729492,1.0160000324249268,16,0.0,0.0,1.57542003E9,,,,0,,1,0.0,1.57542003E9
Raw,1691977,1710442000000,,,-1246692066999178688,-0.3175373077392578,77.7754103182815,-10.51227718730681,14.383486701914613,14,29,0.0,15,200977371495168,21,26.1,-386.46044921875,0.20000000298023224,16,0.0,0.0,1.57542003E9,,,,0,,1,0.0,1.57542003E9
Raw,1691977,1710442000000,,,-1246692066999178688,-0.3175373077392578,77.7754103182815,-10.51227718730681,14.383486701914613,14,31,0.0,15,200977367966140,80,16.3,-333.80364990234375,1.1769999265670776,16,0.0,0.0,1.57542003E9,,,,0,,1,0.0,1.57542003E9
Raw,1691977,1710442000000,,,-1246692066999178688,-0.3175373077392578,77.7754103182815,-10.51227718730681,14.383486701914613,14,5,0.0,783,200963308567467,222,23.2,-4.176858901977539,9.523500442504883,16,0.0,0.0,1.56109798E9,,,,0,,5,0.0,1.56109798E9
Raw,1691977,1710442000000,,,-1246692066999178688,-0.3175373077392578,77.7754103182815,-10.51227718730681,14.383486701914613,14,11,0.0,15,200963368896942,449,12.4,-108.16624450683594,12.338500022888184,16,0.0,0.0,1.56109798E9,,,,0,,5,0.0,1.56109798E9
Raw,1691978,1710442000000,,,-1246692066999178688,-0.3175373077392578,77.7754103182815,-10.51227718730681,14.383486701914613,14,13,0.0,15,200963315737773,119,16.2,26.94314193725586,4.61899995803833,16,0.0,0.0,1.56109798E9,,,,0,,5,0.0,1.56109798E9
Raw,1691979,1710442000000,,,-1246692066999178688,-0.3175373077392578,77.7754103182815,-10.51227718730681,14.383486701914613,14,2,0.0,7183,200977362775882,130,21.1,-169.58021545410156,6.69350004196167,16,0.0,0.0,1.57542003E9,,,,0,,6,0.0,1.57542003E9
Raw,1691979,1710442000000,,,-1246692066999178688,-0.3175373077392578,77.7754103182815,-10.51227718730681,14.383486701914613,14,11,0.0,7183,200977366732997,188,15.9,106.39319610595703,7.1035003662109375,16,0.0,0.0,1.57542003E9,,,,0,,6,0.0,1.57542003E9
Raw,1691980,1710442000000,,,-1246692066999178688,-0.3175373077392578,77.7754103182815,-10.51227718730681,14.383486701914613,14,25,0.0,7183,200977361617933,16,29.4,358.91278076171875,0.20000000298023224,16,0.0,0.0,1.57542003E9,,,,0,,6,0.0,1.57542003E9
Raw,1691980,1710442000000,,,-1246692066999178688,-0.3175373077392578,77.7754103182815,-10.51227718730681,14.383486701914613,14,30,0.0,7183,200977356058095,404,11.7,-527.7890014648438,11.250500679016113,16,0.0,0.0,1.57542003E9,,,,0,,6,0.0,1.57542003E9
Fix,gps,54.375059,18.604058,82.272034,0.000000,9.648001,1562658561000
Raw,1692973,1711442000000,,,-1246692066999178693,-0.5925483703613281,77.29850040050223,-7.968605856502085,14.536372684402014,14,14,0.0,207,38960376815165,167,14.3,-193.01902770996094,5.980500221252441,16,0.0,0.0,1.59806246E9,,,,0,,3,0.0,1.59806246E9
Raw,1692973,1711442000000,,,-1246692066999178693,-0.5925483703613281,77.29850040050223,-7.968605856502085,14.536372684402014,14,13,0.0,207,38960372774464,40,21.2,558.8728637695312,0.9444999694824219,16,0.0,0.0,1.60087501E9,,,,0,,3,0.0,1.60087501E9
Raw,1692974,1711442000000,,,-1246692066999178693,-0.5925483703613281,77.29850040050223,-7.968605856502085,14.536372684402014,14,15,0.0,207,38960366271559,109,19.7,-739.8997802734375,5.555500030517578,16,0.0,0.0,1.602E9,,,,0,,3,0.0,1.602E9
Raw,1692974,1711442000000,,,-1246692066999178693,-0.5925483703613281,77.29850040050223,-7.968605856502085,14.536372684402014,14,24,0.0,207,38960374125102,132,13.5,-510.6733703613281,3.077500104904175,16,0.0,0.0,1.60312499E9,,,,0,,3,0.0,1.60312499E9
Raw,1692974,1711442000000,,,-1246692066999178693,-0.5925483703613281,77.29850040050223,-7.968605856502085,14.536372684402014,14,23,0.0,207,38960376632584,21,26.9,215.79405212402344,0.3352000117301941,16,0.0,0.0,1.60368755E9,,,,0,,3,0.0,1.60368755E9
Raw,1692975,1711442000000,,,-1246692066999178693,-0.5925483703613281,77.29850040050223,-7.968605856502085,14.536372684402014,14,2,0.0,15,200978367069221,53,19.3,136.93533325195312,0.9269999861717224,16,0.0,0.0,1.57542003E9,,,,0,,1,0.0,1.57542003E9
Raw,1692976,1711442000000,,,-1246692066999178693,-0.5925483703613281,77.29850040050223,-7.968605856502085,14.536372684402014,14,12,0.0,15,200978369394479,14,30.7,495.66009521484375,0.20000000298023224,16,0.0,0.0,1.57542003E9,,,,0,,1,0.0,1.57542003E9
Raw,1692976,1711442000000,,,-1246692066999178693,-0.5925483703613281,77.29850040050223,-7.968605856502085,14.536372684402014,14,25,0.0,15,200978373495281,69,18.1,39.90458297729492,2.5160000324249268,16,0.0,0.0,1.57542003E9,,,,0,,1,0.0,1.57542003E9
Raw,1692976,1711442000000,,,-1246692066999178693,-0.5925483703613281,77.29850040050223,-7.968605856502085,14.536372684402014,14,29,0.0,15,200978371496486,21,26.1,-386.0994567871094,0.20000000298023224,16,0.0,0.0,1.57542003E9,,,,0,,1,0.0,1.57542003E9
Raw,1692977,1711442000000,,,-1246692066999178693,-0.5925483703613281,77.29850040050223,-7.968605856502085,14.536372684402014,14,31,0.0,15,200978367966920,80,16.1,-333.8607482910156,1.1769999265670776,16,0.0,0.0,1.57542003E9,,,,0,,1,0.0,1.57542003E9
Raw,1692977,1711442000000,,,-1246692066999178693,-0.5925483703613281,77.29850040050223,-7.968605856502085,14.536372684402014,14,5,0.0,783,200964308567481,289,23.2,-4.176858901977539,11.023500442504883,16,0.0,0.0,1.56109798E9,,,,0,,5,0.0,1.56109798E9
Raw,1692977,1711442000000,,,-1246692066999178693,-0.5925483703613281,77.29850040050223,-7.968605856502085,14.536372684402014,14,11,0.0,15,200964368897303,532,12.4,-108.16624450683594,13.8385009765625,16,0.0,0.0,1.56109798E9,,,,0,,5,0.0,1.56109798E9
Raw,1692978,1711442000000,,,-1246692066999178693,-0.5925483703613281,77.29850040050223,-7.968605856502085,14.536372684402014,14,13,0.0,15,200964315737739,89,16.1,28.316221237182617,2.36899995803833,16,0.0,0.0,1.56109798E9,,,,0,,5,0.0,1.56109798E9
Raw,1692978,1711442000000,,,-1246692066999178693,-0.5925483703613281,77.29850040050223,-7.968605856502085,14.536372684402014,14,2,0.0,7183,200978362776441,120,15.3,-167.39183044433594,4.103499889373779,16,0.0,0.0,1.57542003E9,,,,0,,6,0.0,1.57542003E9
Raw,1692978,1711442000000,,,-1246692066999178693,-0.5925483703613281,77.29850040050223,-7.968605856502085,14.536372684402014,14,11,0.0,7183,200978366732642,237,15.9,106.39319610595703,8.603500366210938,16,0.0,0.0,1.57542003E9,,,,0,,6,0.0,1.57542003E9
Raw,1692979,1711442000000,,,-1246692066999178693,-0.5925483703613281,77.29850040050223,-7.968605856502085,14.536372684402014,14,25,0.0,7183,200978361616730,19,27.4,359.2151184082031,0.20000000298023224,16,0.0,0.0,1.57542003E9,,,,0,,6,0.0,1.57542003E9
Raw,1692979,1711442000000,,,-1246692066999178693,-0.5925483703613281,77.29850040050223,-7.968605856502085,14.536372684402014,14,30,0.0,7183,200978356059856,479,11.7,-527.7890014648438,12.750500679016113,16,0.0,0.0,1.57542003E9,,,,0,,6,0.0,1.57542003E9
Fix,gps,54.375059,18.604058,82.271606,0.000000,9.648001,1562658562000
Raw,1693957,1712442000000,,,-1246692066999178700,-0.8643150329589844,80.07988799363375,-7.913364202152152,14.627945854362242,14,14,0.0,207,38961376815568,73,17.0,-191.8559112548828,1.970500111579895,16,0.0,0.0,1.59806246E9,,,,0,,3,0.0,1.59806246E9
Raw,1693957,1712442000000,,,-1246692066999178700,-0.8643150329589844,80.07988799363375,-7.913364202152152,14.627945854362242,14,13,0.0,207,38961372772584,46,20.5,558.9009399414062,1.004499912261963,16,0.0,0.0,1.60087501E9,,,,0,,3,0.0,1.60087501E9
Raw,1693958,1712442000000,,,-1246692066999178700,-0.8643150329589844,80.07988799363375,-7.913364202152152,14.627945854362242,14,15,0.0,207,38961366274027,147,19.7,-739.8997802734375,7.055500030517578,16,0.0,0.0,1.602E9,,,,0,,3,0.0,1.602E9
Raw,1693958,1712442000000,,,-1246692066999178700,-0.8643150329589844,80.07988799363375,-7.913364202152152,14.627945854362242,14,24,0.0,207,38961374126805,153,13.5,-510.6733703613281,4.577500343322754,16,0.0,0.0,1.60312499E9,,,,0,,3,0.0,1.60312499E9
Raw,1693958,1712442000000,,,-1246692066999178700,-0.8643150329589844,80.07988799363375,-7.913364202152152,14.627945854362242,14,23,0.0,207,38961376631875,21,26.8,215.63609313964844,0.3352000117301941,16,0.0,0.0,1.60368755E9,,,,0,,3,0.0,1.60368755E9
Raw,1693958,1712442000000,,,-1246692066999178700,-0.8643150329589844,80.07988799363375,-7.913364202152152,14.627945854362242,14,2,0.0,15,200979367068732,46,20.4,137.56329345703125,0.796999990940094,16,0.0,0.0,1.57542003E9,,,,0,,1,0.0,1.57542003E9
Raw,1693959,1712442000000,,,-1246692066999178700,-0.8643150329589844,80.07988799363375,-7.913364202152152,14.627945854362242,14,12,0.0,15,200979369392791,13,31.4,495.3919982910156,0.20000000298023224,16,0.0,0.0,1.57542003E9,,,,0,,1,0.0,1.57542003E9
Raw,1693959,1712442000000,,,-1246692066999178700,-0.8643150329589844,80.07988799363375,-7.913364202152152,14.627945854362242,14,25,0.0,15,200979373494988,73,17.1,40.8179931640625,1.8459999561309814,16,0.0,0.0,1.57542003E9,,,,0,,1,0.0,1.57542003E9
Raw,1693959,1712442000000,,,-1246692066999178700,-0.8643150329589844,80.07988799363375,-7.913364202152152,14.627945854362242,14,29,0.0,15,200979371497794,24,25.4,-386.3749694824219,0.3982999920845032,16,0.0,0.0,1.57542003E9,,,,0,,1,0.0,1.57542003E9
Raw,1693959,1712442000000,,,-1246692066999178700,-0.8643150329589844,80.07988799363375,-7.913364202152152,14.627945854362242,14,31,0.0,15,200979367968034,89,16.1,-333.8607482910156,2.677000045776367,16,0.0,0.0,1.57542003E9,,,,0,,1,0.0,1.57542003E9
Raw,1693960,1712442000000,,,-1246692066999178700,-0.8643150329589844,80.07988799363375,-7.913364202152152,14.627945854362242,14,5,0.0,783,200965308567495,366,23.2,-4.176858901977539,12.523500442504883,16,0.0,0.0,1.56109798E9,,,,0,,5,0.0,1.56109798E9
Raw,1693960,1712442000000,,,-1246692066999178700,-0.8643150329589844,80.07988799363375,-7.913364202152152,14.627945854362242,14,11,0.0,15,200965368897664,626,12.4,-108.16624450683594,15.3385009765625,16,0.0,0.0,1.56109798E9,,,,0,,5,0.0,1.56109798E9
Raw,1693961,1712442000000,,,-1246692066999178700,-0.8643150329589844,80.07988799363375,-7.913364202152152,14.627945854362242,14,13,0.0,15,200965315737645,107,16.1,28.316221237182617,3.869000196456909,16,0.0,0.0,1.56109798E9,,,,0,,5,0.0,1.56109798E9
Raw,1693961,1712442000000,,,-1246692066999178700,-0.8643150329589844,80.07988799363375,-7.913364202152152,14.627945854362242,14,2,0.0,7183,200979362776959,61,18.0,-166.9160919189453,0.8734999895095825,16,0.0,0.0,1.57542003E9,,,,0,,6,0.0,1.57542003E9
Raw,1693961,1712442000000,,,-1246692066999178700,-0.8643150329589844,80.07988799363375,-7.913364202152152,14.627945854362242,14,11,0.0,7183,200979366732287,296,15.9,106.39319610595703,10.103500366210938,16,0.0,0.0,1.57542003E9,,,,0,,6,0.0,1.57542003E9
Raw,1693962,1712442000000,,,-1246692066999178700,-0.8643150329589844,80.07988799363375,-7.913364202152152,14.627945854362242,14,25,0.0,7183,200979361615533,19,27.4,358.99835205078125,0.20000000298023224,16,0.0,0.0,1.57542003E9,,,,0,,6,0.0,1.57542003E9
Raw,1693962,1712442000000,,,-1246692066999178700,-0.8643150329589844,80.07988799363375,-7.913364202152152,14.627945854362242,14,30,0.0,7183,200979356061616,564,11.7,-527.7890014648438,14.250500679016113,16,0.0,0.0,1.57542003E9,,,,0,,6,0.0,1.57542003E9
Fix,gps,54.375059,18.604058,82.274109,0.000000,9.648001,1562658563000
Raw,1694958,1713442000000,,,-1246692066999178703,-0.6359310150146484,82.56405999418348,-8.593656005907285,15.070017467668757,14,14,0.0,207,38962376816031,61,18.1,-191.1524200439453,1.1405000686645508,16,0.0,0.0,1.59806246E9,,,,0,,3,0.0,1.59806246E9
Raw,1694958,1713442000000,,,-1246692066999178703,-0.6359310150146484,82.56405999418348,-8.593656005907285,15.070017467668757,14,13,0.0,207,38962372770753,35,22.2,559.0601806640625,0.8844999670982361,16,0.0,0.0,1.60087501E9,,,,0,,3,0.0,1.60087501E9
Raw,1694958,1713442000000,,,-1246692066999178703,-0.6359310150146484,82.56405999418348,-8.593656005907285,15.070017467668757,14,15,0.0,207,38962366276495,196,19.7,-739.8997802734375,8.555500030517578,16,0.0,0.0,1.602E9,,,,0,,3,0.0,1.602E9
Raw,1694958,1713442000000,,,-1246692066999178703,-0.6359310150146484,82.56405999418348,-8.593656005907285,15.070017467668757,14,24,0.0,207,38962374128509,183,13.5,-510.6733703613281,6.077500343322754,16,0.0,0.0,1.60312499E9,,,,0,,3,0.0,1.60312499E9
Raw,1694959,1713442000000,,,-1246692066999178703,-0.6359310150146484,82.56405999418348,-8.593656005907285,15.070017467668757,14,23,0.0,207,38962376631241,19,27.0,215.6137237548828,0.2653000056743622,16,0.0,0.0,1.60368755E9,,,,0,,3,0.0,1.60368755E9
Raw,1694959,1713442000000,,,-1246692066999178703,-0.6359310150146484,82.56405999418348,-8.593656005907285,15.070017467668757,14,2,0.0,15,200980367068328,46,20.0,138.0009765625,0.8569999933242798,16,0.0,0.0,1.57542003E9,,,,0,,1,0.0,1.57542003E9
Raw,1694959,1713442000000,,,-1246692066999178703,-0.6359310150146484,82.56405999418348,-8.593656005907285,15.070017467668757,14,12,0.0,15,200980369391142,13,31.5,495.3586120605469,0.20000000298023224,16,0.0,0.0,1.57542003E9,,,,0,,1,0.0,1.57542003E9
Raw,1694959,1713442000000,,,-1246692066999178703,-0.6359310150146484,82.56405999418348,-8.593656005907285,15.070017467668757,14,25,0.0,15,200980373494852,87,17.1,40.8179931640625,3.3459999561309814,16,0.0,0.0,1.57542003E9,,,,0,,1,0.0,1.57542003E9
Raw,1694960,1713442000000,,,-1246692066999178703,-0.6359310150146484,82.56405999418348,-8.593656005907285,15.070017467668757,14,29,0.0,15,200980371499079,24,25.6,-386.3259582519531,0.3982999920845032,16,0.0,0.0,1.57542003E9,,,,0,,1,0.0,1.57542003E9
Raw,1694960,1713442000000,,,-1246692066999178703,-0.6359310150146484,82.56405999418348,-8.593656005907285,15.070017467668757,14,31,0.0,15,200980367969148,109,16.1,-333.8607482910156,4.177000045776367,16,0.0,0.0,1.57542003E9,,,,0,,1,0.0,1.57542003E9
Raw,1694960,1713442000000,,,-1246692066999178703,-0.6359310150146484,82.56405999418348,-8.593656005907285,15.070017467668757,14,5,0.0,783,200966308567509,453,23.2,-4.176858901977539,14.023500442504883,16,0.0,0.0,1.56109798E9,,,,0,,5,0.0,1.56109798E9
Raw,1694961,1713442000000,,,-1246692066999178703,-0.6359310150146484,82.56405999418348,-8.593656005907285,15.070017467668757,14,11,0.0,15,200966368898024,730,12.4,-108.16624450683594,16.8385009765625,16,0.0,0.0,1.56109798E9,,,,0,,5,0.0,1.56109798E9
Raw,1694961,1713442000000,,,-1246692066999178703,-0.6359310150146484,82.56405999418348,-8.593656005907285,15.070017467668757,14,13,0.0,15,200966315737510,73,17.0,27.864931106567383,1.559000015258789,16,0.0,0.0,1.56109798E9,,,,0,,5,0.0,1.56109798E9
Raw,1694961,1713442000000,,,-1246692066999178703,-0.6359310150146484,82.56405999418348,-8.593656005907285,15.070017467668757,14,2,0.0,7183,200980362777516,69,18.0,-166.9160919189453,2.373500108718872,16,0.0,0.0,1.57542003E9,,,,0,,6,0.0,1.57542003E9
Raw,1694961,1713442000000,,,-1246692066999178703,-0.6359310150146484,82.56405999418348,-8.593656005907285,15.070017467668757,14,11,0.0,7183,200980366731933,365,15.9,106.39319610595703,11.603500366210938,16,0.0,0.0,1.57542003E9,,,,0,,6,0.0,1.57542003E9
Raw,1694962,1713442000000,,,-1246692066999178703,-0.6359310150146484,82.56405999418348,-8.593656005907285,15.070017467668757,14,25,0.0,7183,200980361614346,19,27.8,358.8942565917969,0.20000000298023224,16,0.0,0.0,1.57542003E9,,,,0,,6,0.0,1.57542003E9
Raw,1694962,1713442000000,,,-1246692066999178703,-0.6359310150146484,82.56405999418348,-8.593656005907285,15.070017467668757,14,30,0.0,7183,200980356063377,659,11.7,-527.7890014648438,15.750500679016113,16,0.0,0.0,1.57542003E9,,,,0,,6,0.0,1.57542003E9
Fix,gps,54.375059,18.604058,82.272034,0.000000,9.648001,1562658564000
Raw,1695960,1714442000000,,,-1246692066999178710,-0.14773845672607422,85.52226063329726,-8.2347928203933,15.20447843146998,14,14,0.0,207,38963376816669,70,18.1,-191.1524200439453,2.640500068664551,16,0.0,0.0,1.59806246E9,,,,0,,3,0.0,1.59806246E9
Raw,1695961,1714442000000,,,-1246692066999178710,-0.14773845672607422,85.52226063329726,-8.2347928203933,15.20447843146998,14,13,0.0,207,38963372768938,35,22.3,558.6106567382812,0.8844999670982361,16,0.0,0.0,1.60087501E9,,,,0,,3,0.0,1.60087501E9
Raw,1695961,1714442000000,,,-1246692066999178710,-0.14773845672607422,85.52226063329726,-8.2347928203933,15.20447843146998,14,15,0.0,207,38963366278963,255,19.7,-739.8997802734375,10.055500030517578,16,0.0,0.0,1.602E9,,,,0,,3,0.0,1.602E9
Raw,1695961,1714442000000,,,-1246692066999178710,-0.14773845672607422,85.52226063329726,-8.2347928203933,15.20447843146998,14,24,0.0,207,38963374130212,223,13.5,-510.6733703613281,7.577500343322754,16,0.0,0.0,1.60312499E9,,,,0,,3,0.0,1.60312499E9
Raw,1695961,1714442000000,,,-1246692066999178710,-0.14773845672607422,85.52226063329726,-8.2347928203933,15.20447843146998,14,23,0.0,207,38963376630461,21,26.5,215.9125518798828,0.3352000117301941,16,0.0,0.0,1.60368755E9,,,,0,,3,0.0,1.60368755E9
Raw,1695962,1714442000000,,,-1246692066999178710,-0.14773845672607422,85.52226063329726,-8.2347928203933,15.20447843146998,14,2,0.0,15,200981367067887,53,19.9,137.43960571289062,0.8569999933242798,16,0.0,0.0,1.57542003E9,,,,0,,1,0.0,1.57542003E9
Raw,1695962,1714442000000,,,-1246692066999178710,-0.14773845672607422,85.52226063329726,-8.2347928203933,15.20447843146998,14,12,0.0,15,200981369389492,12,32.1,495.5675354003906,0.20000000298023224,16,0.0,0.0,1.57542003E9,,,,0,,1,0.0,1.57542003E9
Raw,1695962,1714442000000,,,-1246692066999178710,-0.14773845672607422,85.52226063329726,-8.2347928203933,15.20447843146998,14,25,0.0,15,200981373494841,84,16.6,41.08440399169922,1.8459999561309814,16,0.0,0.0,1.57542003E9,,,,0,,1,0.0,1.57542003E9
Raw,1695963,1714442000000,,,-1246692066999178710,-0.14773845672607422,85.52226063329726,-8.2347928203933,15.20447843146998,14,29,0.0,15,200981371500343,21,26.6,-386.1839599609375,0.20000000298023224,16,0.0,0.0,1.57542003E9,,,,0,,1,0.0,1.57542003E9
Raw,1695963,1714442000000,,,-1246692066999178710,-0.14773845672607422,85.52226063329726,-8.2347928203933,15.20447843146998,14,31,0.0,15,200981367970261,138,16.1,-333.8607482910156,5.677000045776367,16,0.0,0.0,1.57542003E9,,,,0,,1,0.0,1.57542003E9
Raw,1695964,1714442000000,,,-1246692066999178710,-0.14773845672607422,85.52226063329726,-8.2347928203933,15.20447843146998,14,5,0.0,783,200967308567523,550,23.2,-4.176858901977539,15.523500442504883,16,0.0,0.0,1.56109798E9,,,,0,,5,0.0,1.56109798E9
Raw,1695964,1714442000000,,,-1246692066999178710,-0.14773845672607422,85.52226063329726,-8.2347928203933,15.20447843146998,14,11,0.0,15,200967368898385,844,12.4,-108.16624450683594,18.3385009765625,16,0.0,0.0,1.56109798E9,,,,0,,5,0.0,1.56109798E9
Raw,1695964,1714442000000,,,-1246692066999178710,-0.14773845672607422,85.52226063329726,-8.2347928203933,15.20447843146998,14,13,0.0,15,200967315737417,85,17.0,27.864931106567383,3.059000015258789,16,0.0,0.0,1.56109798E9,,,,0,,5,0.0,1.56109798E9
Raw,1695964,1714442000000,,,-1246692066999178710,-0.14773845672607422,85.52226063329726,-8.2347928203933,15.20447843146998,14,2,0.0,7183,200981362778073,87,18.0,-166.9160919189453,3.873500108718872,16,0.0,0.0,1.57542003E9,,,,0,,6,0.0,1.57542003E9
Raw,1695965,1714442000000,,,-1246692066999178710,-0.14773845672607422,85.52226063329726,-8.2347928203933,15.20447843146998,14,11,0.0,7183,200981366731578,443,15.9,106.39319610595703,13.103500366210938,16,0.0,0.0,1.57542003E9,,,,0,,6,0.0,1.57542003E9
Raw,1695965,1714442000000,,,-1246692066999178710,-0.14773845672607422,85.52226063329726,-8.2347928203933,15.20447843146998,14,25,0.0,7183,200981361613132,17,28.4,359.1338195800781,0.20000000298023224,16,0.0,0.0,1.57542003E9,,,,0,,6,0.0,1.57542003E9
Raw,1695965,1714442000000,,,-1246692066999178710,-0.14773845672607422,85.52226063329726,-8.2347928203933,15.20447843146998,14,30,0.0,7183,200981356065137,765,11.7,-527.7890014648438,17.25050163269043,16,0.0,0.0,1.57542003E9,,,,0,,6,0.0,1.57542003E9
Fix,gps,54.375059,18.604058,82.266724,0.000000,9.648001,1562658565000
Raw,1696972,1715442000000,,,-1246692066999178715,-0.8548831939697266,87.08509267307818,-8.041198107911598,15.046938477584465,14,14,0.0,207,38964376817472,84,16.2,-192.1279296875,2.05049991607666,16,0.0,0.0,1.59806246E9,,,,0,,3,0.0,1.59806246E9
Raw,1696972,1715442000000,,,-1246692066999178715,-0.8548831939697266,87.08509267307818,-8.041198107911598,15.046938477584465,14,13,0.0,207,38964372766996,40,21.0,559.6781616210938,0.9444999694824219,16,0.0,0.0,1.60087501E9,,,,0,,3,0.0,1.60087501E9
Raw,1696972,1715442000000,,,-1246692066999178715,-0.8548831939697266,87.08509267307818,-8.041198107911598,15.046938477584465,14,15,0.0,207,38964366281431,323,19.7,-739.8997802734375,11.555500030517578,16,0.0,0.0,1.602E9,,,,0,,3,0.0,1.602E9
Raw,1696972,1715442000000,,,-1246692066999178715,-0.8548831939697266,87.08509267307818,-8.041198107911598,15.046938477584465,14,24,0.0,207,38964374131916,274,13.5,-510.6733703613281,9.077500343322754,16,0.0,0.0,1.60312499E9,,,,0,,3,0.0,1.60312499E9
Raw,1696973,1715442000000,,,-1246692066999178715,-0.8548831939697266,87.08509267307818,-8.041198107911598,15.046938477584465,14,23,0.0,207,38964376629708,21,26.5,216.32261657714844,0.3352000117301941,16,0.0,0.0,1.60368755E9,,,,0,,3,0.0,1.60368755E9
Raw,1696973,1715442000000,,,-1246692066999178715,-0.8548831939697266,87.08509267307818,-8.041198107911598,15.046938477584465,14,2,0.0,15,200982367067423,40,21.0,137.7155303955078,0.796999990940094,16,0.0,0.0,1.57542003E9,,,,0,,1,0.0,1.57542003E9
Raw,1696973,1715442000000,,,-1246692066999178715,-0.8548831939697266,87.08509267307818,-8.041198107911598,15.046938477584465,14,12,0.0,15,200982369387835,12,32.1,495.9122619628906,0.20000000298023224,16,0.0,0.0,1.57542003E9,,,,0,,1,0.0,1.57542003E9
Raw,1696973,1715442000000,,,-1246692066999178715,-0.8548831939697266,87.08509267307818,-8.041198107911598,15.046938477584465,14,25,0.0,15,200982373494628,61,18.9,42.054901123046875,0.9359999895095825,16,0.0,0.0,1.57542003E9,,,,0,,1,0.0,1.57542003E9
Raw,1696973,1715442000000,,,-1246692066999178715,-0.8548831939697266,87.08509267307818,-8.041198107911598,15.046938477584465,14,29,0.0,15,200982371501628,24,25.5,-385.7419128417969,0.3982999920845032,16,0.0,0.0,1.57542003E9,,,,0,,1,0.0,1.57542003E9
Raw,1696974,1715442000000,,,-1246692066999178715,-0.8548831939697266,87.08509267307818,-8.041198107911598,15.046938477584465,14,31,0.0,15,200982367971417,141,13.1,-332.9758605957031,3.7370002269744873,16,0.0,0.0,1.57542003E9,,,,0,,1,0.0,1.57542003E9
Raw,1696974,1715442000000,,,-1246692066999178715,-0.8548831939697266,87.08509267307818,-8.041198107911598,15.046938477584465,14,5,0.0,783,200968308567537,657,23.2,-4.176858901977539,17.023500442504883,16,0.0,0.0,1.56109798E9,,,,0,,5,0.0,1.56109798E9
Raw,1696974,1715442000000,,,-1246692066999178715,-0.8548831939697266,87.08509267307818,-8.041198107911598,15.046938477584465,14,11,0.0,15,200968368898746,968,12.4,-108.16624450683594,19.8385009765625,16,0.0,0.0,1.56109798E9,,,,0,,5,0.0,1.56109798E9
Raw,1696974,1715442000000,,,-1246692066999178715,-0.8548831939697266,87.08509267307818,-8.041198107911598,15.046938477584465,14,13,0.0,15,200968315737346,95,15.5,27.79771614074707,1.6190000772476196,16,0.0,0.0,1.56109798E9,,,,0,,5,0.0,1.56109798E9
Raw,1696975,1715442000000,,,-1246692066999178715,-0.8548831939697266,87.08509267307818,-8.041198107911598,15.046938477584465,14,2,0.0,7183,200982362778637,115,14.9,-166.5164794921875,2.69350004196167,16,0.0,0.0,1.57542003E9,,,,0,,6,0.0,1.57542003E9
Raw,1696975,1715442000000,,,-1246692066999178715,-0.8548831939697266,87.08509267307818,-8.041198107911598,15.046938477584465,14,11,0.0,7183,200982366731223,532,15.9,106.39319610595703,14.603500366210938,16,0.0,0.0,1.57542003E9,,,,0,,6,0.0,1.57542003E9
Raw,1696975,1715442000000,,,-1246692066999178715,-0.8548831939697266,87.08509267307818,-8.041198107911598,15.046938477584465,14,25,0.0,7183,200982361611945,17,28.3,359.5129089355469,0.20000000298023224,16,0.0,0.0,1.57542003E9,,,,0,,6,0.0,1.57542003E9
Raw,1696975,1715442000000,,,-1246692066999178715,-0.8548831939697266,87.08509267307818,-8.041198107911598,15.046938477584465,14,30,0.0,7183,200982356066898,880,11.7,-527.7890014648438,18.75050163269043,16,0.0,0.0,1.57542003E9,,,,0,,6,0.0,1.57542003E9
Fix,gps,54.375059,18.604058,82.265198,0.000000,9.648001,1562658566000
Raw,1697960,1716442000000,,,-1246692066999178719,-0.32685375213623047,86.83444320922717,-7.5409526474074315,15.173947679253027,14,14,0.0,207,38965376817965,61,18.2,-191.46197509765625,1.1405000686645508,16,0.0,0.0,1.59806246E9,,,,0,,3,0.0,1.59806246E9
Raw,1697960,1716442000000,,,-1246692066999178719,-0.32685375213623047,86.83444320922717,-7.5409526474074315,15.173947679253027,14,13,0.0,207,38965372765104,35,22.4,559.7249755859375,0.8844999670982361,16,0.0,0.0,1.60087501E9,,,,0,,3,0.0,1.60087501E9
Raw,1697961,1716442000000,,,-1246692066999178719,-0.32685375213623047,86.83444320922717,-7.5409526474074315,15.173947679253027,14,15,0.0,207,38965366283899,402,19.7,-739.8997802734375,13.055500984191895,16,0.0,0.0,1.602E9,,,,0,,3,0.0,1.602E9
Raw,1697961,1716442000000,,,-1246692066999178719,-0.32685375213623047,86.83444320922717,-7.5409526474074315,15.173947679253027,14,24,0.0,207,38965374133619,334,13.5,-510.6733703613281,10.577500343322754,16,0.0,0.0,1.60312499E9,,,,0,,3,0.0,1.60312499E9
Raw,1697961,1716442000000,,,-1246692066999178719,-0.32685375213623047,86.83444320922717,-7.5409526474074315,15.173947679253027,14,23,0.0,207,38965376628959,21,26.4,216.71115112304688,0.3352000117301941,16,0.0,0.0,1.60368755E9,,,,0,,3,0.0,1.60368755E9
Raw,1697961,1716442000000,,,-1246692066999178719,-0.32685375213623047,86.83444320922717,-7.5409526474074315,15.173947679253027,14,2,0.0,15,200983367066951,46,20.5,138.7526397705078,0.796999990940094,16,0.0,0.0,1.57542003E9,,,,0,,1,0.0,1.57542003E9
Raw,1697962,1716442000000,,,-1246692066999178719,-0.32685375213623047,86.83444320922717,-7.5409526474074315,15.173947679253027,14,12,0.0,15,200983369386186,13,31.8,496.1697082519531,0.20000000298023224,16,0.0,0.0,1.57542003E9,,,,0,,1,0.0,1.57542003E9
Raw,1697962,1716442000000,,,-1246692066999178719,-0.32685375213623047,86.83444320922717,-7.5409526474074315,15.173947679253027,14,25,0.0,15,200983373494488,69,18.9,42.054901123046875,2.436000108718872,16,0.0,0.0,1.57542003E9,,,,0,,1,0.0,1.57542003E9
Raw,1697963,1716442000000,,,-1246692066999178719,-0.32685375213623047,86.83444320922717,-7.5409526474074315,15.173947679253027,14,29,0.0,15,200983371502963,24,25.3,-385.529541015625,0.3982999920845032,16,0.0,0.0,1.57542003E9,,,,0,,1,0.0,1.57542003E9
Raw,1697963,1716442000000,,,-1246692066999178719,-0.32685375213623047,86.83444320922717,-7.5409526474074315,15.173947679253027,14,31,0.0,15,200983367972528,166,13.1,-332.9758605957031,5.236999988555908,16,0.0,0.0,1.57542003E9,,,,0,,1,0.0,1.57542003E9
Raw,1697963,1716442000000,,,-1246692066999178719,-0.32685375213623047,86.83444320922717,-7.5409526474074315,15.173947679253027,14,5,0.0,783,200969308567551,774,23.2,-4.176858901977539,18.523500442504883,16,0.0,0.0,1.56109798E9,,,,0,,5,0.0,1.56109798E9
Raw,1697963,1716442000000,,,-1246692066999178719,-0.32685375213623047,86.83444320922717,-7.5409526474074315,15.173947679253027,14,11,0.0,15,200969368899107,1101,12.4,-108.16624450683594,21.3385009765625,16,0.0,0.0,1.56109798E9,,,,0,,5,0.0,1.56109798E9
Raw,1697964,1716442000000,,,-1246692066999178719,-0.32685375213623047,86.83444320922717,-7.5409526474074315,15.173947679253027,14,13,0.0,15,200969315737253,108,15.5,27.79771614074707,3.119000196456909,16,0.0,0.0,1.56109798E9,,,,0,,5,0.0,1.56109798E9
Raw,1697964,1716442000000,,,-1246692066999178719,-0.32685375213623047,86.83444320922717,-7.5409526474074315,15.173947679253027,14,2,0.0,7183,200983362779192,135,14.9,-166.5164794921875,4.19350004196167,16,0.0,0.0,1.57542003E9,,,,0,,6,0.0,1.57542003E9
Raw,1697965,1716442000000,,,-1246692066999178719,-0.32685375213623047,86.83444320922717,-7.5409526474074315,15.173947679253027,14,11,0.0,7183,200983366730868,631,15.9,106.39319610595703,16.103500366210938,16,0.0,0.0,1.57542003E9,,,,0,,6,0.0,1.57542003E9
Raw,1697965,1716442000000,,,-1246692066999178719,-0.32685375213623047,86.83444320922717,-7.5409526474074315,15.173947679253027,14,25,0.0,7183,200983361610746,17,28.1,359.6812744140625,0.20000000298023224,16,0.0,0.0,1.57542003E9,,,,0,,6,0.0,1.57542003E9
Raw,1697965,1716442000000,,,-1246692066999178719,-0.32685375213623047,86.83444320922717,-7.5409526474074315,15.173947679253027,14,30,0.0,7183,200983356068658,1005,11.7,-527.7890014648438,20.25050163269043,16,0.0,0.0,1.57542003E9,,,,0,,6,0.0,1.57542003E9
Fix,gps,54.375059,18.604058,82.268127,0.000000,9.648001,1562658567000
Raw,1698972,1717442000000,,,-1246692066999178726,-0.4049053192138672,89.15262878872454,-6.7196165621419865,15.249850676207712,14,14,0.0,207,38966376818604,70,18.2,-191.46197509765625,2.640500068664551,16,0.0,0.0,1.59806246E9,,,,0,,3,0.0,1.59806246E9
Raw,1698972,1717442000000,,,-1246692066999178726,-0.4049053192138672,89.15262878872454,-6.7196165621419865,15.249850676207712,14,13,0.0,207,38966372763296,35,22.8,559.7343139648438,0.8844999670982361,16,0.0,0.0,1.60087501E9,,,,0,,3,0.0,1.60087501E9
Raw,1698973,1717442000000,,,-1246692066999178726,-0.4049053192138672,89.15262878872454,-6.7196165621419865,15.249850676207712,14,15,0.0,207,38966366286367,491,19.7,-739.8997802734375,14.555500984191895,16,0.0,0.0,1.602E9,,,,0,,3,0.0,1.602E9
Raw,1698973,1717442000000,,,-1246692066999178726,-0.4049053192138672,89.15262878872454,-6.7196165621419865,15.249850676207712,14,24,0.0,207,38966374135323,405,13.5,-510.6733703613281,12.077500343322754,16,0.0,0.0,1.60312499E9,,,,0,,3,0.0,1.60312499E9
Raw,1698973,1717442000000,,,-1246692066999178726,-0.4049053192138672,89.15262878872454,-6.7196165621419865,15.249850676207712,14,23,0.0,207,38966376628257,24,25.5,216.87510681152344,0.6057999730110168,16,0.0,0.0,1.60368755E9,,,,0,,3,0.0,1.60368755E9
Raw,1698974,1717442000000,,,-1246692066999178726,-0.4049053192138672,89.15262878872454,-6.7196165621419865,15.249850676207712,14,2,0.0,15,200984367066338,46,20.2,137.90582275390625,0.8569999933242798,16,0.0,0.0,1.57542003E9,,,,0,,1,0.0,1.57542003E9
Raw,1698974,1717442000000,,,-1246692066999178726,-0.4049053192138672,89.15262878872454,-6.7196165621419865,15.249850676207712,14,12,0.0,15,200984369384530,13,31.6,496.2077941894531,0.20000000298023224,16,0.0,0.0,1.57542003E9,,,,0,,1,0.0,1.57542003E9
Raw,1698975,1717442000000,,,-1246692066999178726,-0.4049053192138672,89.15262878872454,-6.7196165621419865,15.249850676207712,14,25,0.0,15,200984373494348,87,18.9,42.054901123046875,3.936000108718872,16,0.0,0.0,1.57542003E9,,,,0,,1,0.0,1.57542003E9
Raw,1698975,1717442000000,,,-1246692066999178726,-0.4049053192138672,89.15262878872454,-6.7196165621419865,15.249850676207712,14,29,0.0,15,200984371504246,21,26.7,-385.3648986816406,0.20000000298023224,16,0.0,0.0,1.57542003E9,,,,0,,1,0.0,1.57542003E9
Raw,1698976,1717442000000,,,-1246692066999178726,-0.4049053192138672,89.15262878872454,-6.7196165621419865,15.249850676207712,14,31,0.0,15,200984367973638,201,13.1,-332.9758605957031,6.737000465393066,16,0.0,0.0,1.57542003E9,,,,0,,1,0.0,1.57542003E9
Raw,1698976,1717442000000,,,-1246692066999178726,-0.4049053192138672,89.15262878872454,-6.7196165621419865,15.249850676207712,14,5,0.0,783,200970308567565,901,23.2,-4.176858901977539,20.023500442504883,16,0.0,0.0,1.56109798E9,,,,0,,5,0.0,1.56109798E9
Raw,1698976,1717442000000,,,-1246692066999178726,-0.4049053192138672,89.15262878872454,-6.7196165621419865,15.249850676207712,14,11,0.0,15,200970368899468,1245,12.4,-108.16624450683594,22.8385009765625,16,0.0,0.0,1.56109798E9,,,,0,,5,0.0,1.56109798E9
Raw,1698977,1717442000000,,,-1246692066999178726,-0.4049053192138672,89.15262878872454,-6.7196165621419865,15.249850676207712,14,13,0.0,15,200970315737160,131,15.5,27.79771614074707,4.61899995803833,16,0.0,0.0,1.56109798E9,,,,0,,5,0.0,1.56109798E9
Raw,1698977,1717442000000,,,-1246692066999178726,-0.4049053192138672,89.15262878872454,-6.7196165621419865,15.249850676207712,14,2,0.0,7183,200984362779747,164,14.9,-166.5164794921875,5.69350004196167,16,0.0,0.0,1.57542003E9,,,,0,,6,0.0,1.57542003E9
Raw,1698977,1717442000000,,,-1246692066999178726,-0.4049053192138672,89.15262878872454,-6.7196165621419865,15.249850676207712,14,11,0.0,7183,200984366730513,740,15.9,106.39319610595703,17.603500366210938,16,0.0,0.0,1.57542003E9,,,,0,,6,0.0,1.57542003E9
Raw,1698977,1717442000000,,,-1246692066999178726,-0.4049053192138672,89.15262878872454,-6.7196165621419865,15.249850676207712,14,25,0.0,7183,200984361609543,17,28.4,359.73675537109375,0.20000000298023224,16,0.0,0.0,1.57542003E9,,,,0,,6,0.0,1.57542003E9
Raw,1698978,1717442000000,,,-1246692066999178726,-0.4049053192138672,89.15262878872454,-6.7196165621419865,15.249850676207712,14,30,0.0,7183,200984356070419,1140,11.7,-527.7890014648438,21.75050163269043,16,0.0,0.0,1.57542003E9,,,,0,,6,0.0,1.57542003E9
Fix,gps,54.375059,18.604058,82.266724,0.000000,9.648001,1562658568000
Raw,1699975,1718442000000,,,-1246692066999178734,-0.22801494598388672,91.62964124698192,-6.639345894148607,15.079476513432457,14,14,0.0,207,38967376819154,84,16.8,-190.21444702148438,2.05049991607666,16,0.0,0.0,1.59806246E9,,,,0,,3,0.0,1.59806246E9
Raw,1699975,1718442000000,,,-1246692066999178734,-0.22801494598388672,91.62964124698192,-6.639345894148607,15.079476513432457,14,13,0.0,207,38967372761523,35,22.1,558.919677734375,0.8844999670982361,16,0.0,0.0,1.60087501E9,,,,0,,3,0.0,1.60087501E9
Raw,1699975,1718442000000,,,-1246692066999178734,-0.22801494598388672,91.62964124698192,-6.639345894148607,15.079476513432457,14,15,0.0,207,38967366288835,589,19.7,-739.8997802734375,16.055500030517578,16,0.0,0.0,1.602E9,,,,0,,3,0.0,1.602E9
Raw,1699976,1718442000000,,,-1246692066999178734,-0.22801494598388672,91.62964124698192,-6.639345894148607,15.079476513432457,14,24,0.0,207,38967374137026,485,13.5,-510.6733703613281,13.577500343322754,16,0.0,0.0,1.60312499E9,,,,0,,3,0.0,1.60312499E9
Raw,1699976,1718442000000,,,-1246692066999178734,-0.22801494598388672,91.62964124698192,-6.639345894148607,15.079476513432457,14,23,0.0,207,38967376627592,27,24.6,216.8030242919922,0.8004999756813049,16,0.0,0.0,1.60368755E9,,,,0,,3,0.0,1.60368755E9
Raw,1699976,1718442000000,,,-1246692066999178734,-0.22801494598388672,91.62964124698192,-6.639345894148607,15.079476513432457,14,2,0.0,15,200985367065961,53,19.4,137.70602416992188,0.8569999933242798,16,0.0,0.0,1.57542003E9,,,,0,,1,0.0,1.57542003E9
Raw,1699976,1718442000000,,,-1246692066999178734,-0.22801494598388672,91.62964124698192,-6.639345894148607,15.079476513432457,14,12,0.0,15,200985369382879,13,31.2,496.1208190917969,0.20000000298023224,16,0.0,0.0,1.57542003E9,,,,0,,1,0.0,1.57542003E9
Raw,1699977,1718442000000,,,-1246692066999178734,-0.22801494598388672,91.62964124698192,-6.639345894148607,15.079476513432457,14,25,0.0,15,200985373494208,116,18.9,42.054901123046875,5.436000347137451,16,0.0,0.0,1.57542003E9,,,,0,,1,0.0,1.57542003E9
Raw,1699977,1718442000000,,,-1246692066999178734,-0.22801494598388672,91.62964124698192,-6.639345894148607,15.079476513432457,14,29,0.0,15,200985371505515,24,25.4,-385.49041748046875,0.3982999920845032,16,0.0,0.0,1.57542003E9,,,,0,,1,0.0,1.57542003E9
Raw,1699977,1718442000000,,,-1246692066999178734,-0.22801494598388672,91.62964124698192,-6.639345894148607,15.079476513432457,14,31,0.0,15,200985367974749,246,13.1,-332.9758605957031,8.237000465393066,16,0.0,0.0,1.57542003E9,,,,0,,1,0.0,1.57542003E9
Raw,1699977,1718442000000,,,-1246692066999178734,-0.22801494598388672,91.62964124698192,-6.639345894148607,15.079476513432457,14,5,0.0,783,200971308567579,1038,23.2,-4.176858901977539,21.523500442504883,16,0.0,0.0,1.56109798E9,,,,0,,5,0.0,1.56109798E9
Raw,1699977,1718442000000,,,-1246692066999178734,-0.22801494598388672,91.62964124698192,-6.639345894148607,15.079476513432457,14,11,0.0,15,200971368899828,1399,12.4,-108.16624450683594,24.3385009765625,16,0.0,0.0,1.56109798E9,,,,0,,5,0.0,1.56109798E9
Raw,1699977,1718442000000,,,-1246692066999178734,-0.22801494598388672,91.62964124698192,-6.639345894148607,15.079476513432457,14,13,0.0,15,200971315737029,88,16.3,29.132389068603516,2.309000015258789,16,0.0,0.0,1.56109798E9,,,,0,,5,0.0,1.56109798E9
Raw,1699977,1718442000000,,,-1246692066999178734,-0.22801494598388672,91.62964124698192,-6.639345894148607,15.079476513432457,14,2,0.0,7183,200985362780303,203,14.9,-166.5164794921875,7.19350004196167,16,0.0,0.0,1.57542003E9,,,,0,,6,0.0,1.57542003E9
Raw,1699977,1718442000000,,,-1246692066999178734,-0.22801494598388672,91.62964124698192,-6.639345894148607,15.079476513432457,14,11,0.0,7183,200985366730158,859,15.9,106.39319610595703,19.103500366210938,16,0.0,0.0,1.57542003E9,,,,0,,6,0.0,1.57542003E9
Raw,1699978,1718442000000,,,-1246692066999178734,-0.22801494598388672,91.62964124698192,-6.639345894148607,15.079476513432457,14,25,0.0,7183,200985361608335,21,26.4,359.6678466796875,0.20000000298023224,16,0.0,0.0,1.57542003E9,,,,0,,6,0.0,1.57542003E9
