     3.03           OBSERVATION DATA    M: Mixed            RINEX VERSION / TYPE
rinex ON            NSL                 20190708 114758 UTC PGM / RUN BY / DATE
                                                            MARKER NAME
                                                            MARKER TYPE
rinex ON User                                               OBSERVER / AGENCY
  3528843.5748  1187864.8580  5161234.0837                  APPROX POSITION XYZ
XXXXXXXX            Sony                H9436               REC # / TYPE / VERS
XXXXXXXX            H9436                                   ANT # / TYPE
        0.0000        0.0000        0.0000                  APPROX POSITION XYZ
        0.0000        0.0000        0.0000                  ANTENNA: DELTA H/E/N
G    8 C1C L1C D1C S1C C5X L5X D5X S5X                      SYS / # / OBS TYPES
R    4 C1C L1C D1C S1C                                      SYS / # / OBS TYPES
E    8 C1C L1C D1C S1C C5X L5X D5X S5X                      SYS / # / OBS TYPES
C    4 C2I L2I D2I S2I                                      SYS / # / OBS TYPES
J    8 C1C L1C D1C S1C C5X L5X D5X S5X                      SYS / # / OBS TYPES
  2019    07    08    09    48   20.4404221     GPS         TIME OF FIRST OBS
                                                            END OF HEADER
> 2019 07 08 09 48 20.4404221  0 14
R14  19493977.600           0.000         114.550          20.700                                                            
R13  21344310.142           0.000       -3692.000          19.600                                                            
R15  21941174.141           0.000        3830.850          24.500                                                            
R24  19812912.406           0.000        2109.650          17.000                                                            
R23  19496568.407           0.000       -1490.550          17.900                                                            
R08  23832647.202           0.000        3844.600          19.500                                                            
G05  22942172.165           0.000         449.300          19.100                                                            
G21  22043673.482           0.000        2573.550          23.300                                                            
G25  22797314.847           0.000       -3127.200          27.200                                                            
G26  21421997.160           0.000        2360.950          23.200                                                            
G29  20517566.484           0.000       -1186.500          26.200                                                            
G31  22487064.129           0.000       -2248.450          17.700                                                            
E13  23564986.799           0.000        1484.700          19.500                                                            
E27  25212375.436           0.000       -2502.300          23.800                                                            
> 2019 07 08 09 48 21.4404221  0 15
R14  19493967.707           0.000         110.250          19.100                                                            
R13  21345018.551           0.000       -3695.550          18.500                                                            
R15  21940457.038           0.000        3830.850          24.500                                                            
R24  19812541.263           0.000        2106.350          15.800                                                            
R23  19496864.002           0.000       -1497.000          16.300                                                            
R08  23831935.794           0.000        3842.800          18.100                                                            
G05  22942095.118           0.000         440.150          19.100                                                            
G21  22043195.313           0.000        2557.550          24.600                                                            
G25  22797902.441           0.000       -3144.950          21.000                                                            
G26  21421598.136           0.000        2343.350          24.700                                                            
G29  20517809.016           0.000       -1203.177          25.500                                                            
G31  22487502.726           0.000       -2265.100          16.400                                                            
E13  23564703.495           0.000        1479.950          17.800                                                            
E15  23889708.199           0.000       -1360.600          16.000                                                            
E27  25212845.810           0.000       -2515.197          26.500                                                            
> 2019 07 08 09 48 22.4404221  0 15
R14  19493949.420           0.000         106.950          17.600                                                            
R13  21345713.170           0.000       -3697.900          17.500                                                            
R15  21939740.234           0.000        3830.850          24.500                                                            
R24  19812159.028           0.000        2105.200          15.100                                                            
R23  19497154.801           0.000       -1496.750          15.800                                                            
R08  23831226.485           0.000        3839.300          17.400                                                            
G05  22942015.673           0.000         431.150          19.100                                                            
G21  22042706.652           0.000        2551.150          24.800                                                            
G25  22798520.313           0.000       -3147.100          19.600                                                            
G26  21421145.450           0.000        2335.151          26.100                                                            
G29  20518040.156           0.000       -1211.585          26.800                                                            
G31  22487933.827           0.000       -2265.100          16.400                                                            
E13  23564422.590           0.000        1481.350          16.500                                                            
E15  23889971.417           0.000       -1370.400          16.100                                                            
E27  25213326.977           0.000       -2523.735          26.400                                                            
> 2019 07 08 09 48 23.4404221  0 16
R14  19493913.145           0.000         107.450          16.700                                                            
R13  21346413.186           0.000       -3699.450          16.500                                                            
R15  21939023.430           0.000        3830.850          24.500                                                            
R24  19811752.809           0.000        2104.600          14.500                                                            
R23  19497447.398           0.000       -1497.750          14.300                                                            
R08  23830507.583           0.000        3836.950          16.500                                                            
G05  22941932.930           0.000         421.450          19.300                                                            
G21  22042231.481           0.000        2542.050          23.700                                                            
G25  22799103.409           0.000       -3169.700          19.800                                                            
G26  21420695.761           0.000        2325.790          26.700                                                            
G29  20518247.313           0.000       -1220.597          25.700                                                            
G31  22488354.436           0.000       -2279.550          15.500                                                            
E13  23564143.783           0.000        1474.750          15.900                                                            
E15  23890236.134           0.000       -1377.200          16.000                                                            
E21  23747778.355           0.000          74.550          15.000                                                            
E27  25213812.641           0.000       -2533.817          27.200                                                            
> 2019 07 08 09 48 24.4404221  0 16
R14  19493905.050           0.000         106.200          15.700                                                            
R13  21347110.803           0.000       -3701.600          16.100                                                            
R15  21938306.327           0.000        3830.850          24.500                                                            
R24  19811401.452           0.000        2065.750          14.400                                                            
R23  19497741.195           0.000       -1497.250          14.300                                                            
R08  23829810.565           0.000        3833.250          15.900                                                            
G05  22941843.292           0.000         404.750          20.300                                                            
G21  22041737.123           0.000        2545.550          24.300                                                            
G25  22799706.592           0.000       -3169.700          19.800                                                            
G26  21420255.066           0.000        2329.617          27.200                                                            
G29  20518482.350           0.000       -1215.269          25.600                                                            
G31  22488742.368           0.000       -2286.000          17.100                                                            
E13  23563872.171           0.000        1468.350          15.100                                                            
E15  23890499.351           0.000       -1378.850          15.900                                                            
E21  23747761.867           0.000          71.550          15.000                                                            
E27  25214289.011           0.000       -2529.064          27.300                                                            
> 2019 07 08 09 48 25.4404221  0 17
R14  19493890.960           0.000         106.200          15.000                                                            
R13  21347842.896           0.000       -3729.700          15.200                                                            
R15  21937589.523           0.000        3830.850          24.500                                                            
R24  19811005.426           0.000        2058.900          14.300                                                            
R23  19498032.893           0.000       -1499.450          13.400                                                            
R08  23829096.760           0.000        3823.700          14.900                                                            
G05  22941776.439           0.000         381.900          20.400                                                            
G21  22041253.558           0.000        2524.200          24.100                                                            
G25  22800320.567           0.000       -3174.100          17.100                                                            
G26  21419805.677           0.000        2309.040          26.800                                                            
G29  20518719.486           0.000       -1236.100          24.400                                                            
G31  22489270.302           0.000       -2302.350          16.900                                                            
C27  22241407.594           0.000        1878.200          14.800                                                            
E13  23563593.364           0.000        1467.550          14.500                                                            
E15  23890760.171           0.000       -1380.600          15.200                                                            
E21  23747750.474           0.000          67.100          15.000                                                            
E27  25214776.473           0.000       -2549.215          27.400                                                            
> 2019 07 08 09 48 26.4404221  0 17
R14  19493966.808           0.000          46.750          15.900                                                            
R13  21348552.205           0.000       -3740.850          14.900                                                            
R15  21936872.719           0.000        3830.850          24.500                                                            
R24  19810633.084           0.000        2047.250          14.600                                                            
R23  19498313.199           0.000       -1499.450          13.400                                                            
R08  23828394.046           0.000        3812.950          15.300                                                            
G05  22941702.990           0.000         375.600          21.300                                                            
G21  22040772.691           0.000        2514.450          23.200                                                            
G25  22800905.162           0.000       -3176.600          17.800                                                            
G26  21419370.079           0.000        2301.152          26.900                                                            
G29  20518963.517           0.000       -1245.536          25.500                                                            
G31  22489714.295           0.000       -2311.650          16.400                                                            
C27  22241046.944           0.000        1878.200          14.800                                                            
E13  23563314.557           0.000        1463.850          13.600                                                            
E15  23891021.290           0.000       -1382.950          14.400                                                            
E21  23747736.384           0.000          61.950          14.800                                                            
E27  25215265.735           0.000       -2557.324          27.400                                                            
> 2019 07 08 09 48 27.4404221  0 17
R14  19493947.621           0.000          41.300          16.100                                                            
R13  21349259.715           0.000       -3747.350          14.200                                                            
R15  21936155.915           0.000        3830.850          24.500                                                            
R24  19810274.233           0.000        2043.350          14.500                                                            
R23  19498593.505           0.000       -1499.450          13.400                                                            
R08  23827745.295           0.000        3781.900          15.100                                                            
G05  22941634.637           0.000         365.650          20.800                                                            
G21  22040296.320           0.000        2506.650          23.300                                                            
G25  22801494.854           0.000       -3190.650          18.300                                                            
G26  21418931.182           0.000        2293.862          27.500                                                            
G29  20519196.756           0.000       -1252.764          25.700                                                            
G31  22490154.390           0.000       -2311.650          16.400                                                            
C27  22240686.293           0.000        1878.200          14.800                                                            
E13  23563036.050           0.000        1463.850          13.600                                                            
E15  23891280.311           0.000       -1381.700          14.100                                                            
E21  23747718.996           0.000          62.200          14.100                                                            
E27  25215750.499           0.000       -2564.236          26.800                                                            
> 2019 07 08 09 48 28.4404221  0 17
R14  19493939.826           0.000          41.300          16.100                                                            
R13  21349961.529           0.000       -3747.350          14.200                                                            
R15  21935438.812           0.000        3830.850          24.500                                                            
R24  19809891.997           0.000        2043.350          14.500                                                            
R23  19498873.811           0.000       -1499.450          13.400                                                            
R08  23827038.984           0.000        3781.900          15.100                                                            
G05  22941562.986           0.000         360.400          20.900                                                            
G21  22039820.250           0.000        2504.650          23.800                                                            
G25  22802149.301           0.000       -3197.400          15.700                                                            
G26  21418495.884           0.000        2287.670          27.200                                                            
G29  20519439.288           0.000       -1258.983          25.600                                                            
G31  22490513.541           0.000       -2323.650          16.400                                                            
C27  22240325.643           0.000        1878.200          14.800                                                            
E13  23562757.542           0.000        1463.850          13.600                                                            
E15  23891543.229           0.000       -1381.700          14.100                                                            
E21  23747707.304           0.000          62.200          14.100                                                            
E27  25216241.259           0.000       -2570.504          26.900                                                            
> 2019 07 08 09 48 29.4404221  0 17
R14  19493932.032           0.000          41.300          16.100                                                            
R13  21350663.343           0.000       -3747.350          14.200                                                            
R15  21934722.008           0.000        3830.850          24.500                                                            
R24  19809509.762           0.000        2043.350          14.500                                                            
R23  19499154.117           0.000       -1499.450          13.400                                                            
R08  23826332.973           0.000        3781.900          15.100                                                            
G05  22941501.229           0.000         358.850          21.700                                                            
G21  22039339.683           0.000        2498.450          23.500                                                            
G25  22802734.795           0.000       -3205.750          19.300                                                            
G26  21418060.285           0.000        2284.377          27.600                                                            
G29  20519677.323           0.000       -1262.143          25.400                                                            
G31  22490993.209           0.000       -2322.300          16.100                                                            
C27  22239964.993           0.000        1878.200          14.800                                                            
E13  23562479.035           0.000        1463.850          13.600                                                            
E15  23891806.147           0.000       -1381.700          14.100                                                            
E21  23747695.313           0.000          62.200          14.100                                                            
E27  25216720.628           0.000       -2573.695          27.100                                                            
> 2019 07 08 09 48 30.4404221  0 17
R14  19493921.239           0.000           6.050          20.800                                                            
R13  21351365.157           0.000       -3747.350          14.200                                                            
R15  21934005.204           0.000        3830.850          24.500                                                            
R24  19809198.577           0.000        1998.000          21.200                                                            
R23  19499434.422           0.000       -1499.450          13.400                                                            
R08  23825562.207           0.000        3746.900          19.800                                                            
G05  22941437.373           0.000         353.050          20.800                                                            
G21  22038869.008           0.000        2496.000          24.000                                                            
G25  22803362.261           0.000       -3206.900          21.300                                                            
G26  21417635.180           0.000        2279.102          27.400                                                            
G29  20519917.457           0.000       -1267.636          25.400                                                            
G31  22491435.103           0.000       -2322.300          16.100                                                            
C27  22239665.800           0.000        1836.050          11.900                                                            
E13  23562200.528           0.000        1463.850          13.600                                                            
E15  23892069.065           0.000       -1381.700          14.100                                                            
E21  23747683.621           0.000          62.200          14.100                                                            
E27  25217216.484           0.000       -2579.033          27.300                                                            
> 2019 07 08 09 48 31.4404221  0 17
R14  19493927.535           0.000          -1.900          22.100                                                            
R13  21352121.834           0.000       -3793.850          16.300                                                            
R15  21933288.101           0.000        3830.850          24.500                                                            
R24  19808825.036           0.000        1998.000          21.200                                                            
R23  19499714.728           0.000       -1499.450          13.400                                                            
R08  23824952.129           0.000        3740.500          19.100                                                            
G05  22941337.543           0.000         346.850          21.000                                                            
G21  22038409.726           0.000        2487.350          22.400                                                            
G25  22803979.533           0.000       -3213.800          20.700                                                            
G26  21417189.988           0.000        2275.387          27.400                                                            
G29  20520156.691           0.000       -1271.532          25.400                                                            
G31  22491899.182           0.000       -2336.300          16.800                                                            
C27  22239299.154           0.000        1823.650          16.400                                                            
E13  23561922.021           0.000        1463.850          13.600                                                            
E15  23892331.983           0.000       -1381.700          14.100                                                            
E21  23747671.629           0.000          62.200          14.100                                                            
E27  25217704.247           0.000       -2582.845          27.600                                                            
> 2019 07 08 09 48 32.4404221  0 17
R14  19493920.040           0.000          -5.550          20.700                                                            
R13  21352797.866           0.000       -3801.000          18.400                                                            
R15  21932571.297           0.000        3830.850          24.500                                                            
R24  19808460.188           0.000        1994.800          16.600                                                            
R23  19499995.034           0.000       -1499.450          13.400                                                            
R08  23824253.612           0.000        3740.500          19.100                                                            
G05  22941294.073           0.000         346.600          21.000                                                            
G21  22037906.974           0.000        2489.500          24.100                                                            
G25  22804586.014           0.000       -3209.850          21.200                                                            
G26  21416774.775           0.000        2274.526          26.300                                                            
G29  20520386.032           0.000       -1272.538          25.100                                                            
G31  22492316.793           0.000       -2339.850          19.100                                                            
C27  22238948.996           0.000        1823.650          16.400                                                            
E13  23561643.214           0.000        1463.850          13.600                                                            
E15  23892594.901           0.000       -1381.700          14.100                                                            
E21  23747718.996           0.000           9.900          17.200                                                            
E27  25218197.405           0.000       -2583.663          27.600                                                            
> 2019 07 08 09 48 33.4404221  0 18
R14  19493955.116           0.000          -4.400          20.600                                                            
R13  21353509.573           0.000       -3801.000          18.400                                                            
R15  21931854.493           0.000        3830.850          24.500                                                            
R24  19808073.756           0.000        2000.700          18.300                                                            
R23  19500451.019           0.000       -1598.700          14.800                                                            
R08  23823552.698           0.000        3741.450          16.700                                                            
G05  22941219.424           0.000         345.750          20.300                                                            
G21  22037446.493           0.000        2487.950          23.900                                                            
G25  22805211.081           0.000       -3207.750          19.200                                                            
G26  21416339.776           0.000        2274.002          27.000                                                            
G29  20520627.665           0.000       -1271.800          24.900                                                            
G31  22492762.584           0.000       -2336.550          18.300                                                            
C27  22238612.029           0.000        1805.850          15.300                                                            
E01  26332901.911           0.000        2604.350          17.100                                                            
E13  23561364.707           0.000        1463.850          13.600                                                            
E15  23892946.857           0.000       -1440.400          14.800                                                            
E21  23747725.292           0.000           4.150          17.700                                                            
E27  25218696.859           0.000       -2583.257          26.900                                                            
> 2019 07 08 09 48 34.4404221  0 20
R14  19493912.545           0.000          -1.150          20.900                                                            
R13  21354232.073           0.000       -3792.300          18.100                                                            
R15  21931137.689           0.000        3830.850          24.500                                                            
R24  19807699.615           0.000        2000.700          18.300                                                            
R23  19500749.912           0.000       -1598.700          14.800                                                            
R08  23822853.881           0.000        3741.450          16.700                                                            
G02  25159185.958           0.000       -3082.500          14.400                                                            
G05  22941165.761           0.000         347.800          20.600                                                            
G16  23484243.696           0.000        3544.650          13.700                                                            
G21  22036977.918           0.000        2489.000          22.600                                                            
G25  22805802.272           0.000       -3212.000          16.800                                                            
G26  21415903.279           0.000        2275.247          26.900                                                            
G29  20520862.103           0.000       -1270.950          24.900                                                            
G31  22493221.267           0.000       -2338.550          20.000                                                            
C27  22238274.163           0.000        1827.500          16.400                                                            
E01  26332406.354           0.000        2604.350          17.100                                                            
E13  23561086.199           0.000        1463.850          13.600                                                            
E15  23893221.167           0.000       -1440.400          14.800                                                            
E21  23747724.393           0.000           4.150          17.700                                                            
E27  25219187.919           0.000       -2581.974          27.600                                                            
> 2019 07 08 09 48 35.4404221  0 20
R14  19493908.648           0.000           2.250          21.400                                                            
R13  21354965.065           0.000       -3796.550          18.300                                                            
R15  21930420.586           0.000        3830.850          24.500                                                            
R24  19807294.295           0.000        1994.650          18.100                                                            
R23  19501048.505           0.000       -1598.700          14.800                                                            
R08  23822137.977           0.000        3748.700          17.200                                                            
G02  25159772.352           0.000       -3082.500          14.400                                                            
G05  22941091.713           0.000         351.800          21.200                                                            
G16  23483569.163           0.000        3544.650          13.700                                                            
G21  22036510.541           0.000        2491.950          23.200                                                            
G25  22806413.548           0.000       -3212.000          16.800                                                            
G26  21415462.884           0.000        2278.958          25.600                                                            
G29  20521115.427           0.000       -1271.300          24.800                                                            
G31  22493650.570           0.000       -2332.700          19.900                                                            
C27  22237925.505           0.000        1822.300          18.300                                                            
E01  26331910.797           0.000        2604.350          17.100                                                            
E13  23560807.692           0.000        1463.850          13.600                                                            
E15  23893495.177           0.000       -1440.400          14.800                                                            
E21  23747715.998           0.000          10.600          17.200                                                            
E27  25219677.181           0.000       -2578.600          26.400                                                            
> 2019 07 08 09 48 36.4404221  0 20
R14  19493865.478           0.000           1.350          19.200                                                            
R13  21355676.173           0.000       -3796.550          18.300                                                            
R15  21929703.782           0.000        3830.850          24.500                                                            
R24  19806887.477           0.000        2001.300          17.700                                                            
R23  19501347.398           0.000       -1598.700          14.800                                                            
R08  23821435.563           0.000        3748.300          17.900                                                            
G02  25160359.046           0.000       -3082.500          14.400                                                            
G05  22941025.758           0.000         354.950          22.900                                                            
G16  23482900.027           0.000        3553.200          15.600                                                            
G21  22036007.789           0.000        2496.553          26.800                                                            
G25  22807008.337           0.000       -3205.550          21.100                                                            
G26  21415044.373           0.000        2282.400          24.300                                                            
G29  20521349.565           0.000       -1265.600          24.000                                                            
G31  22494098.759           0.000       -2328.450          21.700                                                            
C27  22237575.647           0.000        1822.300          18.300                                                            
E01  26331415.241           0.000        2604.350          17.100                                                            
E13  23560529.185           0.000        1463.850          13.600                                                            
E15  23893753.599           0.000       -1435.750          17.500                                                            
E21  23747714.200           0.000          10.600          17.200                                                            
E27  25220168.840           0.000       -2575.357          26.800                                                            
> 2019 07 08 09 48 37.4404221  0 20
R14  19493872.973           0.000           7.400          17.600                                                            
R13  21356386.981           0.000       -3796.550          18.300                                                            
R15  21928986.978           0.000        3830.850          24.500                                                            
R24  19806501.644           0.000        2013.900          18.400                                                            
R23  19501600.723           0.000       -1593.050          14.200                                                            
R08  23820726.854           0.000        3757.000          21.300                                                            
G02  25160945.440           0.000       -3082.500          14.400                                                            
G05  22940970.297           0.000         358.900          22.200                                                            
G16  23482224.294           0.000        3551.650          17.600                                                            
G21  22035550.906           0.000        2501.308          26.600                                                            
G25  22807639.100           0.000       -3199.858          25.700                                                            
G26  21414609.374           0.000        2285.400          23.700                                                            
G29  20521597.194           0.000       -1260.613          25.000                                                            
G31  22494553.545           0.000       -2323.250          21.700                                                            
C27  22237225.789           0.000        1822.300          18.300                                                            
E01  26330916.386           0.000        2611.600          14.300                                                            
E13  23560250.378           0.000        1463.850          13.600                                                            
E15  23894041.100           0.000       -1427.600          21.700                                                            
E21  23747712.101           0.000          10.600          17.200                                                            
E27  25220657.802           0.000       -2570.895          26.600                                                            
> 2019 07 08 09 48 38.4404221  0 20
R14  19493895.457           0.000           7.500          19.100                                                            
R13  21357098.089           0.000       -3796.550          18.300                                                            
R15  21928269.875           0.000        3830.850          24.500                                                            
R24  19806125.105           0.000        2013.900          18.400                                                            
R23  19501898.716           0.000       -1593.050          14.200                                                            
R08  23820047.824           0.000        3757.150          21.700                                                            
G02  25161532.134           0.000       -3082.500          14.400                                                            
G05  22940865.369           0.000         364.850          19.500                                                            
G16  23481548.262           0.000        3551.650          17.600                                                            
G21  22035083.229           0.000        2504.500          23.600                                                            
G25  22808235.687           0.000       -3194.189          28.200                                                            
G26  21414130.006           0.000        2290.800          20.500                                                            
G29  20521842.124           0.000       -1255.396          27.400                                                            
G31  22495001.734           0.000       -2324.050          21.300                                                            
C27  22236879.529           0.000        1831.150          13.600                                                            
E01  26330419.630           0.000        2611.600          14.300                                                            
E13  23560131.360           0.000        1407.850          14.800                                                            
E15  23894312.712           0.000       -1427.600          21.700                                                            
E21  23747699.210           0.000          15.150          15.300                                                            
E27  25221143.466           0.000       -2566.237          26.500                                                            
> 2019 07 08 09 48 39.4404221  0 20
R14  19493893.958           0.000           7.500          19.100                                                            
R13  21357776.819           0.000       -3784.650          14.500                                                            
R15  21927553.071           0.000        3830.850          24.500                                                            
R24  19805851.095           0.000        2019.400          18.300                                                            
R23  19502196.410           0.000       -1593.050          14.200                                                            
R08  23819312.733           0.000        3760.650          23.300                                                            
G02  25162118.828           0.000       -3082.500          14.400                                                            
G05  22940817.702           0.000         362.750          16.400                                                            
G16  23480872.530           0.000        3551.650          17.600                                                            
G21  22034593.069           0.000        2509.400          24.500                                                            
G25  22808864.652           0.000       -3191.378          25.300                                                            
G26  21413740.876           0.000        2296.050          19.400                                                            
G29  20522083.157           0.000       -1252.477          27.500                                                            
G31  22495409.152           0.000       -2315.150          20.700                                                            
C27  22236527.872           0.000        1831.150          13.600                                                            
E01  26329924.073           0.000        2626.050          17.000                                                            
E13  23559863.346           0.000        1407.850          14.800                                                            
E15  23894584.623           0.000       -1427.600          21.700                                                            
E21  23747696.512           0.000          15.150          15.300                                                            
E27  25221634.826           0.000       -2560.600          22.700                                                            
> 2019 07 08 09 48 40.4404221  0 20
R14  19493887.063           0.000          20.550          17.000                                                            
R13  21358501.717           0.000       -3765.700          18.700                                                            
R15  21926836.267           0.000        3830.850          24.500                                                            
R24  19805473.356           0.000        2019.400          18.300                                                            
R23  19502497.402           0.000       -1575.350          14.200                                                            
R08  23818631.604           0.000        3771.000          20.000                                                            
G02  25162705.222           0.000       -3082.500          14.400                                                            
G05  22940748.750           0.000         362.750          16.400                                                            
G16  23480196.798           0.000        3551.650          17.600                                                            
G21  22034082.222           0.000        2518.550          19.900                                                            
G25  22809460.639           0.000       -3180.308          26.600                                                            
G26  21413262.407           0.000        2302.800          21.100                                                            
G29  20522308.901           0.000       -1241.952          26.600                                                            
G31  22495852.845           0.000       -2311.150          19.600                                                            
C27  22236176.216           0.000        1831.150          13.600                                                            
E01  26329424.319           0.000        2626.050          17.000                                                            
E13  23559595.631           0.000        1407.850          14.800                                                            
E15  23894842.445           0.000       -1421.600          14.700                                                            
E21  23747678.224           0.000          35.600          17.000                                                            
E27  25222124.087           0.000       -2553.650          21.800                                                            
